latitude,longitude,name,provider,full_address,facility_type,data_center_count,aggregated_power,aggregated_area,yearbuilt,sources,avg_name_similarity,avg_provider_similarity
21.3344171,-157.9171751659152,"Krypt: Data Center Honolulu, HI (HNL1)",,"3375 Koapaka Street, Honolulu, HI, 96819, USA",Individual,1,,,,datacenters.com,1.0,1.0
21.3348217,-157.9184074,DRFortress · 3375 Koapaka Street Suite D-198,DRFortress,"3375 Koapaka Street Suite D-198, Honolulu, HI, USA",Individual,1,4.0,65000.0,1988.0,datacenterhawk; datacenters.com,1.0,1.0
21.3360774,-157.9175319,Evocative · HNL,Evocative,"3375 Koapaka Street, Honolulu, HI, USA",Individual,1,,,1988.0,datacenterhawk; datacenters.com,1.0,1.0
21.336815,-158.0902073,1547 Realty · AlohaNAP,1547 Realty,"91-340 Farrington Highway, Kapolei, HI, USA",Individual,1,2.0,10200.0,1990.0,datacenterhawk; datacenters.com,1.0,1.0
21.4809224,-158.0192586,Servpac · 200 Kahelu Avenue,ServPac,"200 Kahelu Avenue, Mililani, HI, USA",Building,2,0.0,30000.0,1990.0,datacenterhawk,1.0,1.0
25.7612274,-80.1910809,CenterServ: Miami Data Center,CenterServ,"1221 Brickell Avenue, Miami, FL, USA",Individual,1,,,,datacenters.com,1.0,1.0
25.7715914,-80.4176876,Metrobloks · Miami,Metrobloks,"400 West 137th Avenue, Miami, FL, USA",Individual,1,,,,datacenterhawk,1.0,1.0
25.7732153,-80.1899214,Cogent Communications: Miami Data Center,Cogent Communications,"200 Southeast 1st Street, Miami, FL, USA",Individual,1,,141687.0,,datacenters.com,1.0,1.0
25.7757021,-80.193056,ColoHouse · MIA I,Digital Realty,"36 NE 2nd Street, Miami, FL, USA",Ambiguous/Flagged,8,,,1920.0,datacenterhawk; datacenters.com,0.4890993168465578,0.6640926640926642
25.775811,-80.1928715,"South Reach Networks · 36 NE 2nd Street, Suite 520",Florida Power and Light,"36 NE 2nd Street, Suite 520, Miami, FL, USA",Individual,1,1.2,162140.0,1925.0,datacenterhawk,1.0,1.0
25.775811,-80.19295799999999,Hivelocity: FLL1 Ft Lauderdale FL,Hivelocity,"36 Northeast 2nd Street suite 600, Miami, FL, USA",Ambiguous/Flagged,2,,,,datacenters.com,0.273972602739726,1.0
25.7758125,-80.1882476,Volico Data Center: MIA1 - Miami Data Center,Volico,"100 Biscayne Boulevard, Miami, FL, USA",Individual,1,,5005.0,,datacenters.com,1.0,1.0
25.7758419,-80.1929625,Not Available,Digital Realty,"36 Northeast 2nd Street, Miami, FL, 33132, USA",Ambiguous/Flagged,2,,,1999.0,datacenters.com,0.2807017543859649,0.1
25.7758398,-80.1929686,Voxility · Miami 2,Digital Realty,"36 NE 2nd Street, Suite 400, Miami, FL, USA",Individual,2,2.0,162140.0,1920.0,datacenterhawk; datacenters.com,1.0,1.0
25.7823647,-80.1931295,Equinix · MI1 (NAP of the Americas),Equinix,"50 NE 9th Street, Miami, FL, USA",Ambiguous/Flagged,5,,,2001.0,datacenterhawk; datacenters.com,0.6360613577172021,0.5111111111111111
25.7825762,-80.1927703,Edgeuno: MIA1 Miami Data Center,Zenlayer,"50 NE 9th St, Miami, FL, 33132, USA",Campus,2,0.0,0.0,,datacenters.com,0.8253968253968254,1.0
25.7876698,-80.3546521,Equinix · MI6,Equinix,"1525 NW 98th Court, Doral, FL, USA",Individual,1,,110000.0,2000.0,datacenterhawk; datacenters.com,1.0,1.0
25.7914961,-80.37958189999999,QTS · 11234 NW 20th Street,QTS,"11234 NW 20th Street, Miami, FL, USA",Individual,1,2.0,38000.0,2008.0,datacenterhawk; datacenters.com,1.0,1.0
25.7930135,-80.38119215,EdgeConnex: MIA01 Miami Data Center,EdgeConnex,"2132 Northwest 114th Avenue, Miami, FL, 33172, USA",Individual,1,1.0,27000.0,,datacenters.com,1.0,1.0
25.793027,-80.3812425,EdgeConneX · MIA01,EdgeConnex,"2132 NW 114th Avenue, Miami, FL, USA",Individual,1,1.5,32000.0,2015.0,datacenterhawk,1.0,1.0
25.7933177,-80.33358109999999,CoreSite · MI2,CoreSite,"2100 NW 84th Avenue, Doral, FL, USA",Building,2,0.0,103000.0,1991.0,datacenterhawk,1.0,1.0
25.7952595,-80.3432196,Aptum Technologies · 2300 NW 89th Place,Aptum Technologies,"2300 NW 89th Place, Doral, FL, USA",Ambiguous/Flagged,3,,,1984.0,datacenterhawk,0.7657657657657658,0.4583333333333333
25.79547075,-80.34320432924858,Aptum Technologies: MIA-89P Data Center,Aptum Technologies,"2300 NW 89th Pl, Doral, FL, 33172, USA",Individual,1,2.0,50176.0,1984.0,datacenters.com,1.0,1.0
25.7961266,-80.3799457,Radius DC · 11300 NW 25th Street,RadiusDC,"11300 NW 25th Street, Sweet Water, FL, USA",Individual,2,,173500.0,2001.0,datacenterhawk; datacenters.com,1.0,1.0
25.797544,-80.23003260000002,CoreSite · MI1,Coresite,"2115 NW 22nd Street, Miami, FL, USA",Building,3,0.0,43330.0,2002.0,datacenterhawk; datacenters.com,0.7301587301587301,0.5402298850574713
25.7975443,-80.23003379573089,LeaseWeb: Miami MIA-11 Data Center,LeaseWeb,"2115 NW 22nd St, Miami, FL, 33142, USA",Individual,1,,43000.0,,datacenters.com,1.0,1.0
25.7979518,-80.2148204,Lumen: Miami 4 Data Center,Lumen,"1109 Northwest 22nd Street, Miami, FL, USA",Individual,1,,100000.0,,datacenters.com,1.0,1.0
25.8079034,-80.32864599999999,Cogent Communications: Doral Data Center,Cogent Communications,"3701 Northwest 82nd Avenue, Doral, FL, USA",Individual,1,,9760.0,,datacenters.com,1.0,1.0
25.8482745,-80.1949020627826,iM Critical: Miami Data Center,,"100 Northeast 80th Terrace, Miami, FL, 33138, USA",Individual,1,,,,datacenters.com,1.0,1.0
25.848329,-80.19481200000001,iM Critical · Miami,iM Critical,"100 NE 80th Terrace, Miami, FL, USA",Individual,1,,,1957.0,datacenterhawk; datacenters.com,1.0,1.0
25.8694257,-80.3790982,EdgeConneX · MIA03,EdgeConneX,"Northwest 106th Street and Northwest 112th Avenue, Miami, FL, USA",Individual,1,,,,datacenterhawk,1.0,1.0
25.8845794,-80.24720649999999,Iron Mountain Data Centers · MIA-1,Iron Mountain,"2925 NW 120th Terrace, Miami, FL, USA",Individual,1,16.0,150000.0,2026.0,datacenterhawk; datacenters.com,1.0,1.0
25.9454596,-80.19147509999999,EdgeConneX · MIA02,EdgeConneX,"475 NE 185th Street, Miami, FL, USA",Individual,1,2.0,65518.0,1983.0,datacenterhawk; datacenters.com,1.0,1.0
26.1239168,-80.1459319,Not Available,Lumen,"200 Northwest 2nd Street, Fort Lauderdale, FL, USA",Individual,1,,9108.0,,datacenters.com,1.0,1.0
26.1664428,-98.2297788,1547 Critical Systems Realty: McAllen TX Data Center,Chase Bank,"South 10th Street, McAllen, TX, USA",Individual,1,1.0,209000.0,,datacenters.com,1.0,1.0
26.1849652,-80.28689949999999,Sunrise Data Services · T-Mobile Everglades MSO,FP&L,"4850 NW 103rd Ave., Sunrise, FL, USA",Individual,1,1.75,33560.0,2018.0,datacenterhawk,1.0,1.0
26.185051,-80.19083309999999,365 Data Centers · FL1,365 Data Centers,"3250 W Commercial Blvd, Suite 140Fort Lauderdale, Miami, FL, USA",Individual,1,0.935,83326.0,1990.0,datacenterhawk; datacenters.com,1.0,1.0
26.1901149,-80.1932918,Flexential · Fort Lauderdale,Flexential,"5301 NW 33rd Avenue, Fort Lauderdale, FL, USA",Individual,1,,64164.0,1994.0,datacenterhawk,1.0,1.0
26.1927222,-80.10384499999999,Flexential: Fort Lauderdale Data Center,Flexential,"5301 Northwest 33rd Avenue, Fort Lauderdale, FL, USA",Ambiguous/Flagged,2,,,,datacenters.com,0.6605504587155964,0.3333333333333333
26.193732142857144,-97.69097642857145,Lumen Harlingen 2,Lumen,"514 E Monroe Ave, Harlingen, TX, 78550, USA",Individual,1,0.02,,,datacentermap,1.0,1.0
26.193897040816328,-97.691061122449,Lumen Harlingen 1,Lumen,"505 E. Monroe, Harlingen, TX, 78550, USA",Individual,1,,5208.0,,datacentermap,1.0,1.0
26.1993898,-98.2321541,MDC Data Centers · MCA2,MDC Data Centers,"422 South 11th Street, McAllen, TX, USA",Individual,1,0.5,16000.0,1990.0,datacenterhawk; datacenters.com,1.0,1.0
26.19973476413753,-98.23187922354096,MDC McAllen - MCA2,MDC Data Centers,"422 S 11th St, McAllen, TX, 78501, USA",Individual,1,1.0,,2020.0,datacentermap,1.0,1.0
26.201918,-98.2316325,1547 Realty · McAllenFeatured,1547 Critical Systems Realty,"200 South 10th Street, McAllen, TX, USA",Ambiguous/Flagged,2,,,1978.0,datacenterhawk; datacentermap,0.4864864864864865,0.22727272727272727
26.2019209,-98.2313815553023,MDC Data Centers: MCA1 McAllen Data Center,,"200 S 10th St, McAllen, TX, 78501, USA",Individual,1,,209000.0,,datacenters.com,1.0,1.0
26.204520242349105,-98.22881724661036,Lumen McAllen 1,Lumen,"906 Beech Avenue, McAllen, TX, 78505, USA",Individual,1,,6015.0,,datacentermap,1.0,1.0
26.2898239,-80.1299085,Volico · FLL1,Volico,"500 Green Road, Deerfield, FL, USA",Individual,1,,152000.0,2002.0,datacenterhawk,1.0,1.0
26.289850040725028,-80.12915194123656,Volico Data Center: FLL1 - Broward Data Center,Volico,"500 Green Road, Deerfield Beach, FL, 33064, USA",Individual,1,48.0,140000.0,,datacenters.com,1.0,1.0
26.3817708,-80.0845196,365 Data Centers: BCA Boca Raton Data Center,365 Data Centers,"3500 Northwest Boca Raton Boulevard, Boca Raton, FL, USA",Individual,1,2.0,49850.0,,datacenters.com,1.0,1.0
26.3818261,-80.0843453,365 Data Centers · BR4,365 Data Centers,"3500 NW Boca Raton Blvd, Bldg 900, Boca Raton, FL, USA",Individual,1,,34000.0,1999.0,datacenterhawk,1.0,1.0
26.3889623,-80.1091478,Equinix · MI3,Equinix,"4680 Conference Way S, Suite 150, Boca Raton, FL, USA",Individual,1,,,1977.0,datacenterhawk,1.0,1.0
26.3893542,-80.1088911,Equinix: MI3 Boca Raton Data Center,Equinix,"4680 Conference Way South, Boca Raton, FL, USA",Individual,1,2.0,31310.0,,datacenters.com,1.0,1.0
26.3928052,-80.109732,Cogent Communications: Boca Raton Data Center,Cogent Communications,"5050 Conference Way North, Boca Raton, FL, USA",Individual,1,,10011.0,,datacenters.com,1.0,1.0
26.6835844,-80.0551754,Lumen: West Palm Beach 1 Data Center,Lumen,"410 Hampton Road, West Palm Beach, FL, USA",Individual,1,,4897.0,,datacenters.com,1.0,1.0
27.4244645,-80.4092194,Data Shelter · 2299 S Rock Road,Data Shelter LLC,"2299 S Rock Road, Fort Pierce, FL, USA",Individual,1,0.85,17000.0,1964.0,datacenterhawk,1.0,1.0
27.505685126580563,-99.50102953066208,Lumen Laredo 1,Lumen,"518 Farragut, Laredo, TX, 78040, USA",Individual,1,,4800.0,,datacentermap,1.0,1.0
27.506397075602685,-99.5010238933477,Windstream Laredo,Windstream,"520 Matamoros St, Laredo, TX, 78040, USA",Individual,1,,,,datacentermap,1.0,1.0
27.689285116863775,-99.45361269764452,MDC Laredo - LDO1,MDC Data Centers,"13619 Cabezut Dr, Laredo, TX, 78045, USA",Individual,1,0.65,8400.0,2018.0,datacentermap; datacenters.com,1.0,1.0
27.690588,-99.449913,MDC Data Centers · LDO1,Media Networks Services,"13619 Cabezut Drive, Unitec Industrial Park, Laredo, TX, USA",Individual,1,,8400.0,2018.0,datacenterhawk,1.0,1.0
27.7928205,-97.4515722,Lumen: Corpus Christi 1 Data Center,Lumen,"4901 Westway Drive, Corpus Christi, TX, USA",Individual,1,,4800.0,,datacenters.com,1.0,1.0
27.793620950689643,-97.45228549805856,Lumen Corpus Christi 1,Lumen,"4901 Westway Drive, Corpus Christi, TX, 78408, USA",Individual,1,,4800.0,,datacentermap,1.0,1.0
27.9444574,-82.4578222,CenterServ: Tampa Data Center,CenterServ,"100 Ashley Drive South, Tampa, FL, USA",Individual,1,,,,datacenters.com,1.0,1.0
27.94553095,-82.35110076559798,Centersquare: TPA1-A Tampa Data Center,Centersquare,"9310 Florida Palm Drive, Tampa, FL, 33619, USA",Individual,1,9.0,40.0,,datacenters.com,1.0,1.0
27.94601,-82.35113109999999,Centersquare · TPA1-AFeatured,Tampa Electric Co,"9310 Florida Palm Drive, Tampa, FL, USA",Individual,1,9.0,96000.0,1999.0,datacenterhawk; datacenters.com,1.0,1.0
27.9477083,-82.4595212,"Wow! Business · 400 North Tampa Street, Suite 1000",Wow! Business,"400 North Tampa Street, Suite 1000, Tampa, FL, USA",Individual,2,0.0,473000.0,1973.0,datacenterhawk; datacenters.com,1.0,1.0
27.9489863,-82.45702539999999,"Ace Host · 412 E Madison St, Ste 1010",Ace Host,"412 E Madison St, Ste 1010, Tampa, FL, USA",Individual,1,2.0,10000.0,1966.0,datacenterhawk; datacenters.com,1.0,1.0
27.9495078,-82.4583957,365 Data Centers: TA1 Tampa Data Center,365 Data Centers,"655 North Franklin Street, Tampa, FL, USA",Individual,1,1.0,30399.0,,datacenters.com,1.0,1.0
27.9499419,-82.4584011,365 Data Centers · TA1,365 Data Centers,"655 N Franklin Street, Suite 1000, Tampa, FL, USA",Individual,1,0.91,212000.0,1957.0,datacenterhawk,1.0,1.0
27.9835334,-80.55716129999999,ColoBarn: Florida Data Center,,"3225 Jordan Boulevard, Malabar, FL, USA",Individual,1,,60000.0,,datacenters.com,1.0,1.0
28.0047931,-82.35819529999999,Hivelocity · TPA 2,TECO Energy,"5908 Hampton Oaks Parkway, Suite D, Tampa, FL, USA",Individual,2,0.0,120000.0,1998.0,datacenterhawk; datacenters.com,1.0,1.0
28.018789,-82.5234778,Lumen: Tampa 1 Data Center,Lumen,"7909 Woodland Center Boulevard, Tampa, FL, USA",Individual,1,9.0,53168.0,,datacenters.com,1.0,1.0
28.01986,-82.52475629999999,Hivelocity: TPA1 Tampa Data Center,Hivelocity,"8010 Woodland Center Boulevard suite 500, Tampa, FL, USA",Individual,1,,,2012.0,datacenters.com,1.0,1.0
28.0198921,-82.5245997,Hivelocity · TPA 1,Hivelocity,"8010 Woodland Center Boulevard, Suite 700, Tampa, FL, USA",Building,2,0.0,89758.0,1990.0,datacenterhawk,1.0,1.0
28.0236939,-81.7292339,DSM: Winter Haven Data Center,DSM,"200 Avenue B Northwest, Winter Haven, FL, USA",Individual,1,,33000.0,,datacenters.com,1.0,1.0
28.0293084,-82.04539919999999,DSM: Lakeland Data Center,DSM,"6810 New Tampa Hwy, Lakeland, FL, USA",Individual,1,,25000.0,,datacenters.com,1.0,1.0
28.0369549,-82.540938,Flexential · Tampa - West,Flexential,"9417 Corporate Lake Drive, Tampa, FL, USA",Building,2,0.0,31600.0,2000.0,datacenterhawk,1.0,1.0
28.0372991,-82.5399781,Flexential: Tampa - West Data Center,Flexential,"9417 Corporate Lake Dr, Tampa, FL, 33634, USA",Individual,1,1.0,31600.0,,datacenters.com,1.0,1.0
28.0738377,-82.3683618993294,Flexential: Tampa - North Data Center,Flexential,"8350 Parkedge Dr, Tampa, FL, 33637, USA",Individual,1,3.0,60166.0,,datacenters.com,1.0,1.0
28.0738516,-82.3683068,Flexential · Tampa - North,Flexential,"8350 Parkedge Drive, Tampa, FL, USA",Individual,2,0.0,60166.0,2015.0,datacenterhawk; datacenters.com,1.0,1.0
28.0794567,-81.9754699,Cologix · LAK1,Lakeland Electric,"2850 Interstate Drive, Lakeland, FL, USA",Individual,1,1.528,105000.0,2013.0,datacenterhawk; datacenters.com,1.0,1.0
28.2603016,-80.6947575,SD Data Center · 8635 Holiday Springs Road,SD Data Center,"8635 Holiday Springs Road, Melbourne, FL, USA",Individual,1,1.0,24665.0,2013.0,datacenterhawk; datacenters.com,1.0,1.0
28.4271462,-81.41983929999999,CoreSite · OR1,American Tower,"9701 S John Young Parkway, Orlando, FL, USA",Individual,1,,130000.0,1984.0,datacenterhawk; datacenters.com,1.0,1.0
28.463893,-81.4180446,Lumen: Orlando 3 Data Center,Lumen,"7003 Presidents Drive, Orlando, FL, USA",Individual,1,,7000.0,,datacenters.com,1.0,1.0
28.5346898,-81.3803867,365 Data Centers: OL1 Orlando Data Center,,"100 West Lucerne Circle, Orlando, FL, USA",Individual,1,,,,datacenters.com,1.0,1.0
28.5378743,-81.3687276,CenterServ: Orlando Data Center,CenterServ,"618 East South Street, Orlando, FL, USA",Individual,1,,,,datacenters.com,1.0,1.0
28.6146104,-81.3856287,HostDime: Orlando Data Center (Coming 2024),HostDime,"980 Wymore Road, Eatonville, FL, USA",Individual,1,,100000.0,2024.0,datacenters.com,1.0,1.0
28.6151072,-81.38576359999999,HostDime · 1000 Wymore Road,HostDime,"1000 Wymore Road, Eatonville, FL, USA",Individual,1,,88000.0,2018.0,datacenterhawk,1.0,1.0
28.6158854,-81.3892679,Lumen: Orlando 1 Data Center,Lumen,"380 South Lake Destiny Drive, Orlando, FL, USA",Individual,1,,35000.0,,datacenters.com,1.0,1.0
28.617402,-81.3937728,HostDime · DimeNOC,Duke Energy,"440 West Kennedy Boulevard, Suite 1, Orlando, FL, USA",Building,2,0.0,116742.0,1985.0,datacenterhawk,1.0,1.0
28.617504,-81.39344290000001,Atlantic.net: Orlando Data Center,Atlantic.net,"440 West Kennedy Boulevard, Orlando, FL, USA",Ambiguous/Flagged,2,,,,datacenters.com,0.7741935483870968,0.3
28.6181794,-81.39346689999999,"Atlantic.Net · 440 West Kennedy Boulevard, Suite 3",Eaton,"440 West Kennedy Boulevard, Suite 3, Orlando, FL, USA",Individual,1,,116742.0,1985.0,datacenterhawk,1.0,1.0
28.70250688094194,-100.50190529328688,MDC Eagle Pass - EGP1,MDC Data Centers,"464 Bliss St, Eagle Pass, TX, 78852, USA",Individual,1,0.5,5208.0,2023.0,datacentermap; datacenters.com,1.0,1.0
28.7028548,-100.5048737,MDC Data Centers · EGP1,MDC Data Centers,"500 Bliss Street, Eagle Pass, TX, USA",Individual,1,0.5,5208.0,,datacenterhawk,1.0,1.0
29.189684,-98.8625269,Rowan Digital Infrastructure · Cinco,AEP,"CR 6712Natalia, Natalia, TX, USA",Individual,1,,,,datacenterhawk,1.0,1.0
29.28626235109411,-98.39343694098464,Amazon AWS SAT - 12807 Donop,Amazon AWS,"12807 Donop Rd, San Antonio, TX, 78223, USA",Individual,1,,,,datacentermap,1.0,1.0
29.2924776,-98.3887455,Amazon AWS: 12807 Donop Rd,Amazon AWS,"12807 Donop Rd, Elmendorf, TX, 78223, USA",Individual,1,,,,datacenters.com,1.0,1.0
29.3558665,-98.8704282,Tract · Highway 90,Tract,"Highway 90, Castroville, TX, USA",Individual,1,,,,datacenterhawk,1.0,1.0
29.4126574,-98.784419,CyrusOne SAT9 - San Antonio,CyrusOne Data Centers,"14815 Omicron Dr, San Antonio, TX, 78245, USA",Individual,1,,,,datacentermap,1.0,1.0
29.413336,-98.786711,CyrusOne · SAT8/9,CyrusOne,"14677 Omicron Drive, San Antonio, TX, USA",Individual,2,0.0,279730.0,,datacenterhawk; datacentermap,1.0,1.0
29.4140042,-98.8029432,Microsoft Azure: San Antonio - Texas,Microsoft Azure,"15000 Lambda Dr, San Antonio, TX, 78245, USA",Individual,1,,159000.0,2018.0,datacentermap; datacenters.com,1.0,1.0
29.41494849999999,-98.7993956,CloudHQ: SAT Campus United States,,"15255 Lambda Dr, San Antonio, TX, 78245, USA",Individual,1,,,,datacenters.com,1.0,1.0
29.4157417,-98.7988725,CloudHQ · SAT-1,CPS Energy,"15355 Lambda Drive, San Antonio, TX, USA",Campus,9,168.0,343000.0,,datacenterhawk,0.8479689366786142,0.876543209876543
29.4170122,-98.7889405,Vantage Data Centers · TX11,Vantage Data Centers,"14720 Omicron Drive, San Antonio, TX, USA",Individual,1,,,,datacenterhawk,1.0,1.0
29.4189881,-98.7876189,CyrusOne · SAT5,CyrusOne,"14719 Omicron Dr, San Antonio, TX, USA",Individual,4,0.0,762620.0,2019.0,datacenterhawk; datacentermap; datacenters.com,1.0,1.0
29.420546,-98.7897219,CyrusOne · SAT10,CyrusOne,"14785 Omicron Drive, San Antonio, TX, USA",Ambiguous/Flagged,2,,,,datacenterhawk,0.5384615384615384,0.3333333333333333
29.4241791,-98.49122698484392,Windstream San Antonio,Windstream,"106 S St Mary's St, San Antonio, TX, 78205, USA",Individual,1,,,,datacentermap,1.0,1.0
29.42842859014774,-98.49398664108584,CityNAP,5,"415 N Main Ave, San Antonio, TX, 78205, USA",Individual,1,,,,datacentermap,1.0,1.0
29.429366,-98.487373,H5 Data Centers San Antonio,H5 Data Centers,"100 Taylor St., San Antonio, TX, 78205, USA",Individual,1,,85000.0,,datacentermap,1.0,1.0
29.4293716,-98.4867924,H5 Data Centers · 100 Taylor Street,CPS Energy,"100 Taylor Street, San Antonio, TX, USA",Individual,1,4.5,85000.0,1914.0,datacenterhawk; datacenters.com,1.0,1.0
29.4300656,-98.8755222,Microsoft San Antonio (SAT80 & SAT81),Microsoft,"18844 Fm1957, San Antonio, TX, 78009, USA",Individual,1,,,,datacentermap,1.0,1.0
29.438297504654177,-98.50608314674209,Lumen San Antonio 2,Lumen,"1203 N. Frio Street, San Antonio, TX, 78207, USA",Individual,1,,12000.0,,datacentermap,1.0,1.0
29.44595021518987,-98.65593046835444,QTS Data Centers: San Antonio Data Center,QTS Data Centers,"8535 Potranco Rd, San Antonio, TX, 78251, USA",Individual,1,90.0,285000.0,,datacentermap; datacenters.com,1.0,1.0
29.4478852,-98.6524784,QTS · SAT2 DC1,QTS,"8535 Potranco Road, San Antonio, TX, USA",Building,2,0.0,338721.0,2021.0,datacenterhawk,0.9285714285714286,1.0
29.4485717,-98.7126625,Stream Data Centers · San Antonio III,CPS Energy,"11203 Military Drive W #1, San Antonio, TX, USA",Individual,5,40.0,300000.0,,datacenterhawk,0.9696706546407491,1.0
29.4532,-98.6371074,Not Available,Amazon AWS,"7400 Potranco Rd, San Antonio, TX, 78251, USA",Individual,1,12.0,109600.0,,datacentermap; datacenters.com,1.0,1.0
29.4665583,-98.68811850000002,CyrusOne · SAT1,CyrusOne,"9999 Westover Hills Boulevard, San Antonio, TX, USA",Individual,1,9.0,110000.0,1996.0,datacenterhawk; datacenters.com,1.0,1.0
29.46662675,-98.6881525704134,CyrusOne SAT1 - San Antonio,CyrusOne Data Centers,"9999 Westover Hills Blvd, San Antonio, TX, 78251, USA",Individual,1,9.0,64000.0,,datacentermap,1.0,1.0
29.468672712740684,-98.69897443448168,Microsoft San Antonio (SAT15),Microsoft,"3555 Westover Link, San Antonio, TX, 78251, USA",Individual,1,,245000.0,2024.0,datacentermap,1.0,1.0
29.4709312,-98.6729514,CyrusOne · SAT2,CyrusOne,"9554 Westover Hills Boulevard, San Antonio, TX, USA",Individual,1,36.0,372000.0,2014.0,datacenterhawk; datacenters.com,1.0,1.0
29.4717406,-98.6715761,Stream Data Centers · San Antonio II,Stream Data Centers,"9550 Westover Hills Blvd, San Antonio, TX, USA",Individual,1,10.0,75840.0,1998.0,datacenterhawk; datacenters.com,1.0,1.0
29.473598,-98.6698383,CyrusOne · SAT3,CyrusOne,"9500 Westover Hills Boulevard, San Antonio, TX, USA",Individual,1,,184202.0,2015.0,datacenterhawk,1.0,1.0
29.47560860565499,-98.39147203550922,Lumen San Antonio 1,Lumen,"5130 Service Center Drive, San Antonio, TX, 78218, USA",Individual,1,,31725.0,,datacentermap,1.0,1.0
29.4756749,-98.3908008,Lumen: San Antonio 1 Data Center,Lumen,"5130 Service Center Drive, San Antonio, TX, USA",Individual,1,,6200.0,,datacenters.com,1.0,1.0
29.4769416977316,-98.69425721398817,Microsoft Azure: Wiseman Boulevard,Microsoft Azure,"3545 Wiseman Blvd, San Antonio, TX, 78251, USA",Individual,1,,350000.0,,datacentermap; datacenters.com,1.0,1.0
29.478,-98.698144,Vantage Data Centers · TX21,Vantage Data Centers,"3800 Wiseman Boulevard, San Antonio, TX, USA",Individual,1,,360000.0,,datacenterhawk,1.0,1.0
29.4798727,-98.692754476773,Microsoft San Antonio Chevron,Microsoft,"5150 Rogers Rd, San Antonio, TX, 78251, USA",Individual,1,,,,datacentermap,1.0,1.0
29.4799187,-98.6925955,Microsoft Azure: South Central US-Texas,Microsoft Azure,"5150 Rogers Rd, San Antonio, TX, USA",Individual,1,,,,datacenters.com,1.0,1.0
29.48105375,-98.69662770704156,Microsoft Azure: San Antonio (SN7) - Texas,Microsoft Azure,"5200 Rogers Rd, San Antonio, TX, 78251, USA",Individual,1,,202000.0,,datacentermap; datacenters.com,1.0,1.0
29.502932,-98.55688399374372,SATC Data Center,SATC Co-Location Services,"3463 Magic Drive, San Antonio, TX, 78229, USA",Individual,1,10.0,,2005.0,datacentermap,1.0,1.0
29.512525,-98.408594,San Antonio Data Center,"Five 9s Digital, LLC","8500 Vicar Drive, San Antonio, TX, 78218, USA",Individual,1,,25000.0,,datacentermap,1.0,1.0
29.52812131947728,-98.49248730408344,Lumen San Antonio 3,Lumen,"214 E Ramsey Rd, San Antonio, TX, 78216, USA",Individual,1,,,,datacentermap,1.0,1.0
29.692250890624603,-95.38002922493826,Energy Transfer Data Center,Energy Transfer,"7210 Ardmore, Houston, TX, 77054, USA",Individual,1,,,,datacentermap,1.0,1.0
29.7132566,-95.5504373,CBRE: 5959 Corporate Dr Data Center,CBRE,"5959 Corporate Drive, Houston, TX, USA",Individual,1,,,,datacentermap; datacenters.com,1.0,1.0
29.723697408163265,-95.50937391836734,Lighthouse Data Center,PS Lightwave,"3960 Braxton Dr, Houston, TX, 77063, USA",Individual,1,0.075,12000.0,,datacentermap,1.0,1.0
29.7281271,-95.445072,DataBank · HOU5 - Galleria,CyrusOne,"4201 Southwest Freeway, Houston, TX, USA",Building,2,0.0,112000.0,1969.0,datacenterhawk,1.0,1.0
29.7292139,-95.4535421,LOGIX Fiber Networks · 4635 Southwest Freeway,LOGIX Fiber Networks,"4635 Southwest Freeway, Houston, TX, USA",Individual,1,,,1971.0,datacenterhawk,1.0,1.0
29.729218,-95.453583,LOGIX Houston #3,LOGIX FIBER NETWORKS,"4635 Southwest Freeway, Houston, TX, 77027, USA",Individual,1,,1500.0,,datacentermap,1.0,1.0
29.730274775510207,-95.44736515306124,DataBank: HOU5 -Houston Galleria Data Center,DataBank,"4201 Southwest Freeway, Houston, TX, 77027, USA",Individual,1,5.0,112000.0,,datacenters.com,1.0,1.0
29.7331639,-95.4170334,Verizon Houston,,"Verizon Communications Inc. 2401 Portsmouth St, Houston, TX, USA",Individual,1,,,,datacentermap,1.0,1.0
29.74926049999999,-95.4723059,Switch · Houston 1,Switch,"5555 San Felipe Drive, Houston, TX, USA",Individual,1,,8000.0,1983.0,datacenterhawk; datacentermap,1.0,1.0
29.7493564,-95.4715705,Switch Data Centers: Houston 1 Data Center,,"5555 San Felipe Street, Houston, TX, USA",Individual,1,,,,datacenters.com,1.0,1.0
29.7533755,-95.3657529,"Netrality Data Centers · 1301 Fannin Street, Suite 1100",Reliant,"1301 Fannin Street, Suite 1100, Houston, TX, USA",Individual,3,,,1981.0,datacenterhawk; datacenters.com,1.0,1.0
29.7534328,-95.3657979875635,Netrality - 1301 Fannin,Netrality Services,"1301 Fannin Street, Houston, TX, 77002, USA",Ambiguous/Flagged,2,,,,datacentermap,0.3404255319148936,0.25
29.7547911,-95.3699316,InterConnX Realty · 1415 Louisiana Street,InterConnX Realty,"1415 Louisiana Street, Houston, TX, USA",Individual,1,,520000.0,1983.0,datacenterhawk,1.0,1.0
29.7591341,-95.3660673,LOGIX Fiber Networks · 777 Walker Street,LOGIX Fiber Networks,"777 Walker Street, Houston, TX, USA",Individual,1,,565538.0,1972.0,datacenterhawk,1.0,1.0
29.75931259999999,-95.3667206,Logix: Houston Data Center - 2.0,LOGIX,"811 Louisiana St, Houston, TX, USA",Individual,1,,,,datacenters.com,1.0,1.0
29.759807795918366,-95.36639693877552,LOGIX Houston #2,LOGIX FIBER NETWORKS,"811 Louisiana St, Houston, TX, 77002, USA",Individual,1,,5500.0,,datacentermap,1.0,1.0
29.759863,-95.366355,Crown Castle Houston (TX1),Crown Castle,"801 Louisiana St, Houston, TX, 77002, USA",Individual,1,1.0,5370.0,2007.0,datacentermap,1.0,1.0
29.7600612,-95.362102,"Quasar Data Center · 1001 Texas Avenue, Suite 310",Quasar,"1001 Texas Avenue, Suite 310, Houston, TX, USA",Individual,1,13.7,120000.0,1883.0,datacenterhawk; datacentermap,1.0,1.0
29.762203180805297,-95.3689806402228,"IBM Cloud: HOU04 Houston, TX",IBM Cloud,"315 Capitol St, Houston, TX, 77002, USA",Individual,1,,,,datacentermap; datacenters.com,1.0,1.0
29.7627516,-95.3647183,Quasar Data Center: Quasar Data Center,Quasar Data Center,"1001 Texas Street suite 310, Houston, TX, 77002, USA",Individual,1,13.7,15000.0,,datacenters.com,1.0,1.0
29.771582039081412,-95.3464880130235,Lumen Houston 3,Lumen,"2300 Lyons Avenue, Houston, TX, 77020, USA",Individual,1,,23870.0,,datacentermap,1.0,1.0
29.7946172,-95.7448377,EdgeConneX · HOU01,EdgeConneX,"1510 Primewest Parkway, Katy, TX, USA",Individual,3,1.0,91400.0,1999.0,datacenterhawk; datacentermap; datacenters.com,0.6535353535353535,1.0
29.7967633,-95.5615665,Hostrunway Houston,Hostrunway Datacenters,"10685-B Hazelhurst Dr. # 19283, Houston, TX, 77043, USA",Individual,1,,,,datacentermap,1.0,1.0
29.80154199941935,-95.81837754044804,Skybox Datacenters: Houston I Data Center,Skybox Datacenters,"22000 Franz Rd, Katy, TX, 77449, USA",Individual,1,26.0,96129.0,,datacenters.com,1.0,1.0
29.8029821,-95.7556755,Element Critical · Houston One,Element Critical,"22000 Franz Road, Katy, TX, USA",Individual,1,26.0,118248.0,2014.0,datacenterhawk; datacentermap; datacenters.com,1.0,1.0
29.8179633,-95.35401935,"Lumen, 1124 Hardy Rd",Lumen,"1124 Hardy Rd, Houston, TX, 77020, USA",Individual,1,,,,datacentermap,1.0,1.0
29.8224797,-97.9429612,CloudBurst Data Centers · N State Hwy 123,CloudBurst Data Centers,"N State Hwy 123, San Marcos, TX, USA",Individual,1,,,,datacenterhawk,1.0,1.0
29.84111270892831,-95.563172208119,DataBank: HOU3 -Westway Park III Data Center,DataBank,"11003 Corporate Centre Dr, Houston, TX, 77041, USA",Individual,1,4.0,162000.0,,datacentermap; datacenters.com,1.0,1.0
29.844018469387755,-95.55727534693877,DataBank: HOU1 - Westway Park I Data Center,DataBank,"5150 Westway Park Blvd, Houston, TX, 77041, USA",Individual,1,23.0,162000.0,,datacentermap; datacenters.com,1.0,1.0
29.84406,-95.560354,Data Canopy · 11003 Corporate Centre Drive,Centerpoint,"11003 Corporate Centre Drive, Houston, TX, USA",Individual,3,34.5,640000.0,2014.0,datacenterhawk; datacenters.com,1.0,1.0
29.8442358,-95.5550862,DataBank · HOU1 - Westway Park,"CenterPoint Energy Houston Electric, LLC","5150 Westway Park Boulevard, Houston, TX, USA",Building,2,0.0,162000.0,2009.0,datacenterhawk,1.0,1.0
29.8443008,-95.5566866,DataBank · HOU2 - Westway Park,DataBank,"5170 Westway Park Boulevard, Houston, TX, USA",Building,2,0.0,160000.0,2012.0,datacenterhawk,1.0,1.0
29.844437857142857,-95.55727228571428,DataBank: HOU2 - Westway Park II Data Center,DataBank,"5170 Westway Park Blvd, Houston, TX, 77041, USA",Individual,1,9.0,160000.0,,datacentermap; datacenters.com,1.0,1.0
29.8742269,-95.5456883,Lumen: Houston 2 Data Center,Lumen,"7060 Empire Central Drive, Houston, TX, USA",Individual,1,,12000.0,,datacentermap; datacenters.com,1.0,1.0
29.88105419999999,-97.7933357,Tract · Caldwell Valley I,Tract,"FM 2720Maxwell, Maxwell, TX, USA",Individual,1,,,,datacenterhawk,1.0,1.0
29.8917534,-97.7219889,Prime Data Centers · Farm to Market Road 2720,Prime Data Centers,"Farm to Market Road 2720, Lockhart, TX, USA",Individual,1,,,2017.0,datacenterhawk,1.0,1.0
29.9065142,-95.6260071,Cogent Data Center - Houston 2,"Cogent Communications, Inc.","8902 Point Six Circle, Houston, TX, 77095, USA",Individual,1,,27183.0,,datacentermap,1.0,1.0
29.9243277,-97.7543189,Prime Austin,Prime Data Centers,"FM2720 & Bobwhite Rd, Maxwell, TX, 78656, USA",Individual,1,,,,datacentermap,1.0,1.0
29.93519837095079,-95.35647981013987,Equinix HO1,Equinix,"1515 Aldine Meadows Road, Houston, TX, 77032, USA",Individual,1,,76606.0,,datacentermap,1.0,1.0
29.9359553,-95.364309,Equinix · HO1,Equinix,"1515 Aldine Meadows Road, Houston, TX, USA",Individual,2,0.0,108336.0,1999.0,datacenterhawk; datacenters.com,1.0,1.0
29.9377527,-97.3188998,EdgeConneX · FM 535,Blue Bonnett,"FM 535Cedar Creek, TX, USA",Individual,1,,,,datacenterhawk,1.0,1.0
29.9416577,-95.4172734,Lumen: Houston 1 Data Center,Lumen,"12001 North Freeway, Houston, TX, USA",Individual,2,,51300.0,1989.0,datacentermap; datacenters.com,1.0,1.0
29.9424742,-95.415788,Sungard Availability Services · HOU-12175,CNP,"12175 North Freeway, Houston, TX, USA",Individual,1,1.1,27291.0,2000.0,datacenterhawk,1.0,1.0
29.9426314,-95.4164759,Digital Realty · 12231 North Freeway,Digital Realty,"12231 North Freeway, Houston, TX, USA",Individual,1,,53910.0,1989.0,datacenterhawk,1.0,1.0
29.942933,-95.415398,CyrusOne Houston (Greenspoint),CyrusOne Data Centers,"12085 North Freeway, Houston, TX, 77060, USA",Individual,1,,,,datacentermap,1.0,1.0
29.94299415565293,-95.42947093941734,"IBM Cloud: HOU02 Houston, TX",IBM Cloud,"855 Greens Parkway, Houston, TX, 77067, USA",Individual,1,,,,datacentermap; datacenters.com,1.0,1.0
29.9431111,-95.4172784,Digital Realty · 12031 North Freeway,Digital Realty,"12031 North Freeway, Houston, TX, USA",Individual,2,0.0,427521.0,2012.0,datacenterhawk; datacenters.com,1.0,1.0
29.943176224299062,-95.41548421495328,12235 North Fwy (IAH14),Digital Realty,"12235 North Fwy, Houston, TX, 77060, USA",Individual,1,6.2,42400.0,,datacentermap,1.0,1.0
29.943169738317756,-95.41548191588784,12231 North Fwy (IAH13),Digital Realty,"12231 North Fwy, Houston, TX, 77060, USA",Individual,1,3.3,30600.0,,datacentermap,1.0,1.0
29.9434568,-95.4158439,Sungard Availability Services · HOU-12025,Sungard Availability Services,"12025 North Freeway, Houston, TX, USA",Individual,1,,23000.0,1989.0,datacenterhawk,1.0,1.0
29.943717545454547,-95.40337072727272,"IBM Cloud: HOU01 Houston, TX",IBM Cloud,"390 Benmar Drive, Houston, TX, 77060, USA",Individual,1,,,,datacentermap; datacenters.com,1.0,1.0
29.94401194004561,-95.41501457706786,12001 North Fwy (IAH10),Digital Realty,"12001 North Fwy, Houston, TX, 77060, USA",Individual,1,1.125,219600.0,,datacentermap,1.0,1.0
29.9440865,-95.4164084,Cogent Communications: Houston Data Center,Cogent Communications,"12061 North Fwy, Houston, TX, USA",Individual,1,,27460.0,,datacenters.com,1.0,1.0
29.9441910643831,-95.42303152342129,Data Foundry: Houston 2 Data Center,Data Foundry,"660 Greens Parkway, Houston, TX, 77067, USA",Individual,1,0.05,350000.0,1994.0,datacentermap; datacenters.com,1.0,1.0
29.9444803,-95.4166586,Digital Realty · 12235 North Freeway,Digital Realty,"12235 North Freeway, Houston, TX, USA",Individual,1,,87500.0,1989.0,datacenterhawk,1.0,1.0
29.9452445,-95.4240214,Switch · Houston 2,Switch,"660 Greens Parkway, Houston, TX, USA",Individual,3,,350000.0,2015.0,datacenterhawk; datacenters.com,1.0,1.0
29.9488746,-90.0701146,Cogent Communications: New Orleans Data Center,Cogent Communications,"650 Poydras Street, New Orleans, LA, USA",Individual,1,,,,datacenters.com,1.0,1.0
29.9507683,-90.0767572,Lumen: New Orleans 2 Data Center,Lumen,"1250 Poydras Street, New Orleans, LA, USA",Individual,1,,9379.0,,datacenters.com,1.0,1.0
29.95184519999999,-90.07004640000001,CenterServ: New Orleans Data Center,CenterServ,"201 St Charles Ave, New Orleans, LA, USA",Individual,1,,,,datacenters.com,1.0,1.0
29.9529136,-90.0733933,"Fogo Data Centers · 935 Gravier Street, Floor 10",Fogo Data Centers,"935 Gravier Street, Floor 10, New Orleans, LA, USA",Individual,1,,401481.0,1981.0,datacenterhawk,1.0,1.0
29.953029,-90.0731073,Not Available,,"935 Gravier Street 10th floor, New Orleans, LA, 70112, USA",Individual,1,,21000.0,,datacenters.com,1.0,1.0
29.96693545,-95.4192182,"FIBERTOWN - Houston, Texas",FIBERTOWN,"12031 North Freeway, Houston, TX, 77067, USA",Individual,1,,30000.0,2011.0,datacentermap,1.0,1.0
29.9722954,-90.1578447,Lumen: Metairie 1 Data Center,Lumen,"3220 Lausat Street, Metairie, LA, USA",Individual,1,,20000.0,,datacenters.com,1.0,1.0
29.9936643,-95.4258943,Lumen Houston 1,Lumen,"12001 1-45 North, Houston, TX, 77003, USA",Individual,1,,51300.0,,datacentermap,1.0,1.0
29.99610449999999,-95.5632588,Serverfarm · HOU2 Building 1,Serverfarm,"15555 Cutten Road, Houston, TX, USA",Campus,2,0.0,478257.0,1990.0,datacenterhawk,0.9642857142857143,1.0
30.0184646,-95.8616639,Serverfarm · HOU1,Serverfarm,"28401 Betka Road, Hockley, TX, USA",Individual,1,,355544.0,2009.0,datacenterhawk,1.0,1.0
30.0660371,-95.4590494,TRG Datacenters · Houston OneFeatured,TRG Datacenters,"2626 Spring Cypress Road, Spring, TX, USA",Individual,1,2.25,120000.0,2017.0,datacenterhawk; datacenters.com,1.0,1.0
30.1043511,-81.5209219,EdgePresence: JAX2 Edge Data Center,,"15180 Bartram Park Blvd, Jacksonville, FL, 32258, USA",Individual,1,,160.0,,datacenters.com,1.0,1.0
30.1777869,-95.4864793,Stream Data Centers · Houston I,Entergy,"4001 Technology Forest BlvdThe Woodlands, Houston, TX, USA",Individual,1,2.4,74901.0,2012.0,datacenterhawk; datacentermap; datacenters.com,1.0,1.0
30.1957618,-97.7111353,Lumen: Austin 1 Data Center,Lumen,"4207 Smith School Road, Austin, TX, USA",Individual,1,0.018,75474.0,,datacenters.com,1.0,1.0
30.19721,-97.713135,Lumen Austin 1,Lumen,"4207 Smith School Road, Austin, TX, 78744, USA",Individual,1,,75474.0,,datacentermap,1.0,1.0
30.1989015,-97.713626149871,Data Foundry - Texas 1,Data Foundry,"4100 Smith School Road, Austin, TX, 78744, USA",Campus,2,36.05,455000.0,,datacentermap,0.9545454545454546,1.0
30.1989158,-97.7137848,Switch · Texas 3,Switch,"4100 Smith School Rd, Austin, TX, USA",Campus,4,60.0,455000.0,2010.0,datacenterhawk; datacenters.com,0.9375,1.0
30.1998721,-97.7050509,LightEdge · Austin II,LightEdge,"7000-B Burleson Road, Austin, TX, USA",Individual,1,,264755.0,1999.0,datacenterhawk,1.0,1.0
30.200528,-97.7066468,LightEdge: Austin II Data Center,LightEdge,"7000 Burleson Rd, Austin, TX, 78744, USA",Individual,1,2.0,58471.0,1994.0,datacentermap; datacenters.com,1.0,1.0
30.2056623,-97.6995195,CyrusOne · AUS4,CyrusOne,"7201 Metropolis Drive, Austin, TX, USA",Campus,2,0.0,0.0,,datacenterhawk,1.0,1.0
30.2059898,-97.6978126,CyrusOne · AUS2,CyrusOne,"7301 Metropolis Drive, Austin, TX, USA",Building,4,0.0,70000.0,2012.0,datacenterhawk; datacenters.com,1.0,1.0
30.2068418,-97.7010928,CyrusOne · AUS3,CyrusOne,"7100 Metropolis Drive, Austin, TX, USA",Ambiguous/Flagged,4,,,2015.0,datacenterhawk; datacenters.com,0.49333333333333335,0.47368421052631576
30.20695115,-97.70111931170716,CyrusOne AUS3 - Austin,CyrusOne Data Centers,"7100 Metropolis Drive, Austin, TX, 78744, USA",Individual,1,24.0,172000.0,,datacentermap,1.0,1.0
30.2097805,-97.71634608157729,Hostway Austin Trade Center,"Hostway Services, Inc","6110 Trade Center Dr, Austin, TX, 78744, USA",Individual,1,,60000.0,2004.0,datacentermap,1.0,1.0
30.209796,-97.697846,Cogent Data Center - Austin,"Cogent Communications, Inc.","7301 Metro Center Dr, Austin, TX, 78744, USA",Individual,1,,,,datacentermap,1.0,1.0
30.212073,-97.6959423,Digital Realty · AUS11,Austin Energy Company,"7500 Metro Center Drive, Austin, TX, USA",Building,2,0.0,85688.0,2000.0,datacenterhawk; datacenters.com,1.0,1.0
30.2121195,-97.69589126682894,MOD Mission Critical: AU2 - DRT Austin Data Center PoP,MOD Mission Critical,"7500 Metro Center Dr, Austin, TX, 78744, USA",Individual,1,4.2,86000.0,2001.0,datacentermap; datacenters.com,1.0,1.0
30.2142909,-97.7126804,LightEdge · Austin I,LightEdge,"2916 Montopolis Drive, Suite 300, Austin, TX, USA",Individual,1,,30960.0,1999.0,datacenterhawk; datacenters.com,1.0,1.0
30.21429715,-97.71266755173376,LightEdge: Austin I Data Center,LightEdge,"2916 Montopolis Dr, Austin, TX, 78741, USA",Individual,1,2.0,58471.0,,datacentermap; datacenters.com,1.0,1.0
30.2159764,-97.6946253,Switch · AUS01,Digital Realty,"7401 E Ben White Boulevard, Austin, TX, USA",Individual,4,,40000.0,1999.0,datacenterhawk; datacenters.com,1.0,1.0
30.216273,-97.6923054,Enzu: AUS1 Austin Data Center,Enzu,"7620 Metro Center Dr, Austin, TX, USA",Individual,1,,,,datacenters.com,1.0,1.0
30.21646819999999,-97.6949725,CyrusOne Austin Data Center I,CyrusOne Data Centers,"7401-2 East Ben White Blvd, Austin, TX, 78741, USA",Individual,1,,45000.0,,datacentermap,1.0,1.0
30.217209,-81.581937,TierPoint · JAX,TierPoint,"8324 Baymeadows Way, Jacksonville, FL, USA",Individual,2,0.0,119330.0,1982.0,datacenterhawk; datacenters.com,1.0,1.0
30.245577,-81.58308099999999,Flexential · Jacksonville,Flexential,"4905 Belfort Road, Jacksonville, FL, USA",Building,2,0.0,35184.0,1999.0,datacenterhawk,1.0,1.0
30.245648,-81.581923,Flexential: Jacksonville Data Center,Flexential,"4905 Belfort Road suite 145, Jacksonville, FL, 32256, USA",Individual,1,1.0,35184.0,,datacenters.com,1.0,1.0
30.254242,-81.6042028,EdgeConnex: JAX01 Jacksonville Data Center,EdgeConnex,"6602 Executive Park Court North, Jacksonville, FL, USA",Individual,1,1.0,15570.0,,datacenters.com,1.0,1.0
30.2542917,-81.60412769999999,EdgeConneX · JAX01,EdgeConnex,"6602 Executive Park Court N, Unit 105, Jacksonville, FL, USA",Individual,1,,17600.0,1993.0,datacenterhawk,1.0,1.0
30.2610165,-97.7221365,LOGIX Fiber Networks · 1905 East 6th Street,LOGIX Fiber Networks,"1905 East 6th Street, Austin, TX, USA",Individual,1,,,1985.0,datacenterhawk; datacenters.com,1.0,1.0
30.2610598,-97.7230424,Lumen: Austin 2 Data Center,Lumen,"500 Chicon Street, Austin, TX, USA",Individual,1,0.018,5000.0,,datacenters.com,1.0,1.0
30.262981232455683,-97.72193610421168,Lumen Austin 3,Lumen,"500 B. Chicon Street, Austin, TX, 78702, USA",Individual,1,,5000.0,,datacentermap,1.0,1.0
30.2684769,-97.668687,Core Scientific · 3301 Hibbetts Road,Core Scientific,"3301 Hibbetts Road, Austin, TX, USA",Individual,1,,,,datacenterhawk,1.0,1.0
30.2726272,-81.6239096,Lumen: Jacksonville 1 Data Center,Lumen,"4814 Philips Highway, Jacksonville, FL, USA",Individual,1,,24000.0,,datacenters.com,1.0,1.0
30.2732215,-81.6138663,Cologix · JAX2,Cologix,"4800 Spring Park Road, Jacksonville, FL, USA",Individual,1,,125000.0,1971.0,datacenterhawk; datacenters.com,1.0,1.0
30.2790175,-97.76024153842864,American Tower EDC Austin,American Tower Corporation,"1601 West 10th Street, Austin, TX, 78703, USA",Individual,1,,,,datacentermap,1.0,1.0
30.285454974874373,-89.74132473869346,EdgeConnex: SLI01 New Orleans Data Center,EdgeConnex,"2070 Gause Blvd E, Slidell, LA, 70461, USA",Individual,1,1.0,26950.0,,datacenters.com,1.0,1.0
30.28691379999999,-89.7374591,EdgeConneX · SLI01,EdgeConneX,"2070 Gause Boulevard E, Slidell, LA, USA",Individual,1,,27270.0,2002.0,datacenterhawk,1.0,1.0
30.3314378,-81.662921,Cologix · JAX1,JEA,"421 West Church Street, Jacksonville, FL, USA",Individual,3,,10200.0,1960.0,datacenterhawk; datacenters.com,1.0,1.0
30.331439,-81.66262119999999,365 Data Centers: JCK1 Jacksonville Data Center,,"421 Church Street West, Jacksonville, FL, USA",Individual,1,,,,datacenters.com,1.0,1.0
30.33783819647839,-97.80473268815022,Bestline Communications,"Bestline Communications, L.P.","500 N Capital of Texas Hwy, Austin, TX, 78746, USA",Individual,1,,,,datacentermap,1.0,1.0
30.342447,-97.6974115,Element Critical · Austin,Element Critical,"8025 N Interstate 35, Austin, TX, USA",Individual,1,,62300.0,2001.0,datacenterhawk,1.0,1.0
30.3428035,-97.69617382746422,Element Critical: Austin One Data Center,Element Critical,"8025 N Interstate Hwy 35, Austin, TX, 78753, USA",Individual,1,5.0,62300.0,,datacenters.com,1.0,1.0
30.3542573,-97.7993006,GTT Austin Data Center,GTT Communications,"6200 Bridgepoint Parkway, Austin, TX, 78730, USA",Individual,1,,10000.0,,datacentermap,1.0,1.0
30.357106,-91.1187267,Lumen: Baton Rouge 2 Data Center,Lumen,"9826 Burbank Dr, Baton Rouge, LA, USA",Individual,1,,5000.0,,datacenters.com,1.0,1.0
30.3770376,-95.6693902,Data Journey The Bunker,,"Data Journey 550 Club Dr., Montgomery TX, TX, 77316, USA",Individual,1,,240000.0,1981.0,datacentermap,1.0,1.0
30.3777017,-95.6688032,Data Journey · Data Center One,Data Journey,"552 Club Drive, Montgomery, TX, USA",Individual,3,0.0,254000.0,1982.0,datacenterhawk; datacenters.com,1.0,1.0
30.383190270373035,-97.69896979559918,Lumen Austin 2,Lumen,"1825-A Kramer Lane, Austin, TX, 78758, USA",Individual,1,,44984.0,,datacentermap,1.0,1.0
30.387558,-91.092567,Transformyx · 6867 Bluebonnet Blvd,Transformyx,"6867 Bluebonnet Blvd, Baton Rouge, LA, USA",Individual,1,,32000.0,1989.0,datacenterhawk,1.0,1.0
30.4211453,-97.5916136,Thin-nology Data Center,Thin-nology LLC,"3804 Helios Way, Austin, TX, 78660, USA",Individual,1,2.0,8000.0,,datacentermap; datacenters.com,1.0,1.0
30.435985,-97.766046,DataBank AUS1 - Austin,DataBank,"7218 McNeil Dr, Austin, TX, 78729, USA",Individual,1,0.405,7870.0,,datacentermap,1.0,1.0
30.4360445,-97.7660812,DataBank · AUS1,DataBank,"7218 McNeil Drive, Suite 300, Austin, TX, USA",Individual,2,0.0,12700.0,1983.0,datacenterhawk; datacenters.com,1.0,1.0
30.43852355,-89.03717333000844,C-Spire: Gulfport Data Center,C-Spire,"10394 Express Dr, Gulfport, MS, 39503, USA",Individual,1,,,,datacenters.com,1.0,1.0
30.45172055786544,-91.11638388229332,DartPoints: Baton Rouge Data Center 2,,"7139 Florida Blvd, Baton Rouge, LA, 70806, USA",Individual,1,,27000.0,,datacenters.com,1.0,1.0
30.4522571,-91.1157462,DartPoints · BTR1,DartPoints,"7127 Florida Blvd, Baton Rouge, LA, USA",Individual,1,,27000.0,,datacenterhawk,1.0,1.0
30.45228719999999,-91.1155706,DartPoints · BTR2,DartPoints,"7139 Florida Blvd, Baton Rouge, LA, USA",Individual,1,,27000.0,,datacenterhawk,1.0,1.0
30.452874860181808,-91.15186523881972,CenterServ: Baton Rouge Data Center,CenterServ,"301 N Main Street, Baton Rouge, LA, 70825, USA",Individual,1,,,,datacenters.com,1.0,1.0
30.4717835,-84.3536542,EdgeConneX · TAL01,EdgeConneX,"1531 Commonwealth Business Dr, Units 404-408, Tallahassee, FL, USA",Individual,1,,11810.0,2006.0,datacenterhawk,1.0,1.0
30.4721597,-84.35267623705366,EdgeConnex: TAL01 Tallahassee Data Center,EdgeConnex,"1531 Commonwealth Business Drive, Tallahassee, FL, 32303, USA",Individual,1,,11810.0,,datacenters.com,1.0,1.0
30.481060226142983,-97.62019395514008,Skybox Datacenters: Austin Data Center,Skybox Datacenters,"600 New Meister Ln, Pflugerville, TX, 78660, USA",Individual,1,30.0,141000.0,,datacenters.com,1.0,1.0
30.481318,-97.6225528,Skybox Datacenters · AUS01,Oncor,"600 New Meister Lane, Pflugerville, TX, USA",Individual,2,0.0,289740.0,2023.0,datacenterhawk; datacentermap,1.0,1.0
30.4841981,-97.6575059,Switch · AUS06,Switch,"640 Louis HennaRound Rock, Austin, TX, USA",Individual,1,,,,datacenterhawk,1.0,1.0
30.4878633,-97.6469232,Sabey Data Centers · SDC Austin Building 1,Sabey Data Centers,"1300 Louis Henna Blvd, Round Rock, TX, USA",Individual,2,0.0,440000.0,2023.0,datacenterhawk; datacentermap,1.0,1.0
30.487871,-97.672582,Switch · AUS04,Switch,"150 Dell Way, Round Rock, TX, USA",Individual,1,,,2024.0,datacenterhawk,1.0,1.0
30.4894033,-97.6695315,Switch · AUS05,Switch,"300 Dell Way, Round Rock, TX, USA",Individual,1,25.0,183605.0,,datacenterhawk,1.0,1.0
30.542019,-97.5197869,Skybox Datacenters · Hutto 1,Oncor,"3399 County Road 132, Hutto, TX, USA",Individual,1,,,,datacenterhawk,1.0,1.0
30.554803,-97.5244859,Skybox Datacenters · Hutto 3,Oncor,"Country Road 132Hutto, Hutto, TX, USA",Campus,5,0.0,0.0,,datacenterhawk,0.9642857142857142,1.0
30.5673396,-97.3876019,Blueprint Projects · 1601 E Martin Luther King Jr Boulevard,Blueprint Projects,"1601 E Martin Luther King Jr Boulevard, Taylor, TX, USA",Individual,1,,135000.0,2023.0,datacenterhawk,1.0,1.0
30.6741477,-96.3736116,FIBERTOWN · 110 North Main Street,FIBERTOWN,"110 North Main Street, Bryan, TX, USA",Individual,1,3.0,47000.0,1919.0,datacenterhawk; datacentermap; datacenters.com,1.0,1.0
30.8994919,-102.9068523,Fort Stockton Clean Campus,Lancium,"1753 US Hwy 285, Fort Stockton, TX, 79735, USA",Individual,1,25.0,100000.0,,datacentermap,1.0,1.0
31.058023,-97.297899,Rowan Digital Infrastructure · Moriah,Birch Infrastructure and Quinbrook Infrastructure Partners,"2810 Bob White Road, Temple, TX, USA",Individual,1,10.0,81000.0,2022.0,datacenterhawk,1.0,1.0
31.126016,-97.3580386,Connect · 2325 Eberhardt Road,Connect,"2325 Eberhardt Road, Temple, TX, USA",Individual,1,,61554.0,2024.0,datacenterhawk,1.0,1.0
31.3197424,-89.3498506,C-Spire: MegaGate Data Center,C-Spire,"4200 Mamie Street, Hattiesburg, MS, USA",Individual,1,,,,datacenters.com,1.0,1.0
31.3346639,-110.943579,MDC Data Centers · NOG1,MDC Data Centers,"81 North Sonoita Avenue, Nogales, AZ, USA",Individual,1,,,2010.0,datacenterhawk,1.0,1.0
31.55499259999999,-97.1334692,DataBank · ACT1,DataBank,"700 Austin Avenue, Waco, TX, USA",Individual,1,,43596.0,1956.0,datacenterhawk; datacenters.com,1.0,1.0
31.6124016,-97.0927629,Lumen Waco,Lumen,"1417 Airbase Rd,, Waco, TX, 75705, USA",Individual,1,,4800.0,,datacentermap,1.0,1.0
31.652332,-94.674257,NacSpace Data Center,,"2400 North Stallings Drive, Nacogdoches, TX, 75964, USA",Individual,1,,,,datacentermap,1.0,1.0
31.6777028,-106.2893234,Connect · 9879 North Loop Drive,Oppidan Investment Company,"9879 North Loop Drive, El Paso, TX, USA",Individual,1,,61554.0,2024.0,datacenterhawk,1.0,1.0
31.7500037,-106.3099272,MDC Data Centers · ELP1,MDC Data Centers,"11455 Cedar Oak Drive, El Paso, TX, USA",Individual,1,0.5,10169.0,1989.0,datacenterhawk,1.0,1.0
31.750258757035105,-106.31256019918212,MDC Data Centers: ELP1 El Paso Data Center,MDC Data Centers,"11455 Cedar Oak Dr, El Paso, TX, 79936, USA",Individual,1,0.5,10169.0,,datacentermap; datacenters.com,1.0,1.0
31.7552119,-106.4930972,Flō Networks El Paso,,"500 W Overland Avenue, El Paso, TX, 79901, USA",Individual,1,,,,datacentermap,1.0,1.0
31.75578,-106.492968,Lumen El Paso 1,Lumen,"501 W. Overland, El Paso, TX, 79936, USA",Individual,1,,20000.0,,datacentermap,1.0,1.0
31.7558199,-106.4935268,Lumen: El Paso 1 Data Center,Lumen,"501 West Overland Avenue, El Paso, TX, USA",Individual,1,,20000.0,,datacenters.com,1.0,1.0
31.7590631,-106.4856088,Stanton Data Center,Huntleigh Technology Group,"100 N. Stanton St., El Paso, TX, 79901, USA",Individual,1,,4000.0,2010.0,datacentermap,1.0,1.0
31.7609918,-106.4883515,One San Jacinto Plaza,Unknown Company,"201 E Main Drive, El Paso, TX, 79901, USA",Individual,1,,,1962.0,datacentermap,1.0,1.0
31.77384100202407,-106.44392970073235,Cogent Data Center - El Paso,"Cogent Communications, Inc.","151 N Boone St, El Paso, TX, 79905, USA",Individual,1,,5710.0,,datacentermap,1.0,1.0
31.8566055,-97.3555729,CyrusOne DFW10 - Whitney,CyrusOne Data Centers,"557 County Rd 3610, Whitney, TX, 76692, USA",Individual,1,,250000.0,,datacentermap,1.0,1.0
31.9685988,-99.9018131,CyrusOne · DFW10,CyrusOne,"CR 3610AWhitney, TX, USA",Campus,3,0.0,0.0,,datacenterhawk,0.9375,1.0
32.1721388,-110.9538372,ark data centers · 1215 East Pennsylvania Street,Involta,"1215 East Pennsylvania Street, Tucson, AZ, USA",Individual,2,,39000.0,1978.0,datacenterhawk; datacenters.com,1.0,1.0
32.1736264,-110.9132454,TECfusions · 3701 E Columbia Street,Aphorio Carter,"3701 E Columbia Street, Tucson, AZ, USA",Individual,1,18.0,133452.0,,datacenterhawk; datacenters.com,1.0,1.0
32.2240837,-110.9689655,Lumen: Tucson 1 Data Center,Lumen,"135 North 6th Avenue, Tucson, AZ, USA",Individual,1,,5000.0,,datacenters.com,1.0,1.0
32.2547621,-108.5366023,639 Solar: 639 Cloud - DC2,639 Cloud - DC2,"106 NM-113, Lordsburg, NM, 88065, USA",Campus,2,1.0,1013.0,,datacenters.com,0.9615384615384616,0.6956521739130435
32.3509582,-95.3126059,Barrio Energy · Project Rose,Barrio Energy,"1105 W Erwin Street, Tyler, TX, USA",Individual,1,,8000.0,1947.0,datacenterhawk,1.0,1.0
32.3778405,-86.3029067,Retirement Systems of Alabama · RSA Dexter Avenue Datacenter,Retirement Systems of Alabama,"445 Dexter Avenue, Montgomery, AL, USA",Individual,1,,350000.0,2011.0,datacenterhawk,1.0,1.0
32.43436624444445,-81.76656526666666,EdgePresence: Statesboro Edge Data Center,,"695 Brannen St, Statesboro, GA, 30458, USA",Individual,1,,360.0,,datacenters.com,1.0,1.0
32.44324265,-97.048805,Google Midlothian Data Center,Google,"3800 Railport Pkwy, Midlothian, TX, 76065, USA",Individual,1,,,,datacentermap,1.0,1.0
32.4432701,-97.0488853,"Google: Midlothian, TX Data Center",Google,"3800 Railport Pkwy, Midlothian, TX, USA",Individual,1,,,2019.0,datacenters.com,1.0,1.0
32.44659365980494,-90.15186236089548,C-Spire: Ridgelands Data Center,C-Spire,"1018 Highland Colony Parkway, Ridgeland, MS, 39157, USA",Individual,1,,23800.0,,datacenters.com,1.0,1.0
32.5014619,-99.7891278,Crusoe Energy Systems · Abilene,,"5502 Spinks Road, Abilene, TX, USA",Individual,1,,,,datacenterhawk,1.0,1.0
32.511179,-93.749847,DartPoints: Shreveport Data Center,,"601 Milam St, Shreveport, LA, 71101, USA",Individual,1,0.02,87000.0,,datacenters.com,1.0,1.0
32.5190546,-96.7993428,PowerHouse Data Centers · Red Oak,Oncor,"N Highway 342Red Oak, Red Oak, TX, USA",Building,2,0.0,9.0,,datacenterhawk,1.0,1.0
32.538943399999994,-96.80436497789512,Compass Red Oak - 300 Houston School Rd,Compass Datacenters,"300 Houston School Rd, Dallas, TX, 75154, USA",Individual,1,,,,datacentermap,1.0,1.0
32.5411135,-96.7972804,Compass Datacenters · Red Oak II,Compass Datacenters,"481 N Austin Boulevard, Red Oak, TX, USA",Individual,1,,400000.0,2023.0,datacenterhawk,1.0,1.0
32.5415818,-96.7967029,Compass Datacenters · Red Oak V,Compass Data Centers,"491 Austin Boulevard, Red Oak, TX, USA",Campus,6,0.0,2040000.0,2023.0,datacenterhawk,0.9616871973227296,0.5904957264957266
32.5423356,-96.7977397,Compass Datacenters · Red Oak III,Compass,"441 Austin Boulevard, Red Oak, TX, USA",Building,3,0.0,400000.0,2021.0,datacenterhawk,0.9689077126577127,0.6790123456790124
32.548641,-96.731217,EdgeConneX · Building 1,Oncor,"2901 Nokomis Road, Lancaster, TX, USA",Individual,5,67.0,700500.0,,datacenterhawk,0.9565217391304348,0.5599999999999999
32.55002,-97.07486,Aligned Data Centers · DFW03,Aligned Data Centers,"3801 Britton Road, Mansfield, TX, USA",Building,2,0.0,391150.0,,datacenterhawk,1.0,1.0
32.568254,-96.682395,QTS · Dallas V,QTS,"420 Lavender Road, Wilmer, TX, USA",Individual,1,,,,datacenterhawk,1.0,1.0
32.5728664,-96.7648007,Skybox Datacenters · PowerCampus Dallas - Building 1,Skybox Datacenters & Bandera Ventures,"2401 S Dallas Avenue, Lancaster, TX, USA",Ambiguous/Flagged,3,,,,datacenterhawk,0.9807692307692307,0.42857142857142855
32.584201,-96.701988,Stream Data Centers · DFW VIII,Stream Data Centers,"300 S Sunrise Road, Wilmer, TX, USA",Individual,1,,300000.0,2024.0,datacenterhawk,1.0,1.0
32.5872327,-96.6964684,QTS · Dallas I DC2,QTS Data Centers,"303 Mason Road, Lancaster, TX, USA",Individual,4,,413725.0,,datacenterhawk; datacentermap,1.0,1.0
32.590015,-96.708979,NTT Global Data Centers · TX11,NTT Global Data Centers,"201 Sunrise Road, Lancaster, TX, USA",Individual,1,,400000.0,1999.0,datacenterhawk,1.0,1.0
32.5923976,-96.6790163,Stream Data Centers · DFW XII,Stream,"501 Belt Line Road #2, Wilmer, TX, USA",Campus,2,0.0,0.0,,datacenterhawk,0.9830508474576272,1.0
32.593352,-96.703667,Stream Data Centers · DFW XI,Stream,"501 W Beltline Road #1Wilmer, Wilmer, TX, USA",Individual,1,,,,datacenterhawk,1.0,1.0
32.594201,-117.0853541,MDC Data Centers · SDG1,MDC Data Centers,"7014 Manya Circle, San Diego, CA, USA",Individual,1,,7920.0,2023.0,datacenterhawk; datacenters.com,1.0,1.0
32.59425265,-117.08534590073972,MDC San Diego - SDG1,MDC Data Centers,"7014 Manya Cir, San Diego, CA, 92154, USA",Individual,1,0.5,7920.0,2023.0,datacentermap,1.0,1.0
32.60088495,-85.5075951,AUBix: Auburn Data Center,,"1571 W Samford Ave, Auburn, AL, 36832, USA",Individual,1,,40000.0,,datacenters.com,1.0,1.0
32.601021,-85.513409,Core Scientific · 1571 W Samford Ave,Core Scientific,"1571 W Samford Ave, Auburn, AL, USA",Individual,1,,40000.0,2021.0,datacenterhawk,1.0,1.0
32.603766,-96.7049585,Stream DC DFW-VIII - Wilmer,Stream Data Centers,"60 Sunrise Road, Dallas, TX, 75146, USA",Individual,1,90.0,,,datacentermap,1.0,1.0
32.634354,-117.0784429,CenterServ: Chula Vista Data Center,CenterServ,"333 H Street, Chula Vista, CA, USA",Individual,1,,,,datacenters.com,1.0,1.0
32.635318,-97.312701,5CDC Dallas-Fort Worth - DFW01,5C Data Centers (5CDC),"1201 John Burgess Dr, Fort Worth, TX, 76140, USA",Individual,1,,240000.0,,datacentermap,1.0,1.0
32.6361796,-97.3086258,5C Data Centers · DFW02,5C Data Centers,"1201 John Burgess Dr, Fort Worth, TX, USA",Campus,4,0.0,0.0,,datacenterhawk,0.9710144927536232,1.0
32.6445796,-97.2666209,Black Mountain · Everman,Black Mountain,"3600 LonStephenson Road, Forest Hill, TX, USA",Individual,1,,,2015.0,datacenterhawk,1.0,1.0
32.708797,-117.151458,Cogent Data Center - San Diego 3,"Cogent Communications, Inc.","1402 K St, San Diego, CA, 92101, USA",Individual,1,,19820.0,,datacentermap,1.0,1.0
32.7152694,-117.16229,SimpleNet Colo,"SimpleNet, Inc.","225 Broadway, San Diego, CA, 92101, USA",Individual,1,0.45,2000.0,1998.0,datacentermap,1.0,1.0
32.71752,-117.159724,Cogent Data Center - San Diego 1,"Cogent Communications, Inc.","525 B Street, San Diego, CA, 92101, USA",Individual,1,,5307.0,,datacentermap,1.0,1.0
32.7176935,-117.1597364,Cogent Communications: San Diego B Street Data center,Cogent Communications,"525 B Street, San Diego, CA, USA",Individual,1,,5307.0,,datacenters.com,1.0,1.0
32.744962,-97.314708,Cogent Data Center - Fort Worth,"Cogent Communications, Inc.","1400 E Presidio St, Fort Worth, TX, 76102, USA",Individual,1,,110078.0,,datacentermap,1.0,1.0
32.7479838,-97.3233503,Lumen: Fort Worth 1 Data Center,Lumen,"1601 Jones Street, Fort Worth, TX, USA",Individual,1,0.018,18686.0,,datacenters.com,1.0,1.0
32.7485979011933,-97.324195474729,Lumen Fort Worth 1,Lumen,"1601 Jones Street, Fort Worth, TX, 76102, USA",Individual,1,,18686.0,,datacentermap,1.0,1.0
32.7503245,-97.3345393,Enterhost Data Center,Consuro Managed Technology,"801 Cherry Street Suite LLG50, Fort Worth, TX, 76102, USA",Individual,1,,20000.0,,datacentermap,1.0,1.0
32.7510527,-97.3319733,LOGIX Fiber Networks · 307-309 West 7th Street,LOGIX Fiber Networks,"307-309 West 7th Street, Fort Worth, TX, USA",Individual,1,,,1929.0,datacenterhawk,1.0,1.0
32.75246553437614,-97.33029607068325,Logix: Fort Worth Data Center,Logix,"307-309 W 7th St, Fort Worth, TX, 76102, USA",Individual,1,,,,datacentermap; datacenters.com,1.0,1.0
32.7554632,-97.3215551588921,Lumen Fort Worth 2,Lumen,"1101 E 9th St, Fort Worth, TX, 76102, USA",Individual,1,0.02,,,datacentermap,1.0,1.0
32.7619858,-97.0767249,CenterServ: Arlington Data Center,CenterServ,"2000 East Lamar Boulevard, Arlington, TX, USA",Individual,1,,,,datacenters.com,1.0,1.0
32.7782042,-96.7989116,DataBank · DFW1,Oncor,"400 S Akard Street, Dallas, TX, USA",Individual,3,,36219.0,1921.0,datacenterhawk; datacentermap; datacenters.com,1.0,1.0
32.778320550000004,-96.7985002392905,"IBM Cloud: DAL04 Dallas, TX",IBM Cloud,"400 South Akard Street, Dallas, TX, 75202, USA",Ambiguous/Flagged,4,,,2005.0,datacentermap; datacenters.com,0.47052015658837254,1.0
32.78044645,-96.80184746116942,Lumen Dallas 3,Lumen,"1201 Main Street, Dallas, TX, 75202, USA",Individual,1,,9569.0,,datacentermap,1.0,1.0
32.78160784440574,-96.78071720113378,LOGIX Dallas #2,LOGIX FIBER NETWORKS,"2914 Taylor Street, Dallas, TX, 75226, USA",Individual,1,,,,datacentermap,1.0,1.0
32.7836691632653,-96.81842404081632,Cogent Data Center - Dallas 2,"Cogent Communications, Inc.","146 Parkhouse St, Dallas, TX, 75207, USA",Individual,1,,8192.0,,datacentermap,1.0,1.0
32.7836966,-96.79467,Global IP Networks · 2020 Live Oak Street,Oncor,"2020 Live Oak Street, Dallas, TX, USA",Individual,2,0.0,139182.0,1938.0,datacenterhawk; datacenters.com,1.0,1.0
32.783714599999996,-96.79462286306006,Provision Data Services,,"2020 Live Oak, Dallas, TX, 75201, USA",Individual,1,,125000.0,,datacentermap,1.0,1.0
32.7853501,-96.7963347,DartPoints · 2001 Bryan Street,Spire Realty,"2001 Bryan Street, Dallas, TX, USA",Individual,1,0.2,,1972.0,datacenterhawk,1.0,1.0
32.785532399999994,-96.79804231034126,TPx Dallas Data Center,TPx Communications,"717 N Harwood St, Dallas, TX, 75201, USA",Individual,1,,,,datacentermap,1.0,1.0
32.7856117,-96.7981774,TPx Communications: Dallas Data Center,TPx Communications,"717 North Harwood Street, Dallas, TX, USA",Individual,1,,,,datacenters.com,1.0,1.0
32.78628815151515,-96.80014412121211,Data Canopy - Dallas,HOSTING,"1807 Ross Avenue, Dallas, TX, 75201, USA",Individual,1,,,,datacentermap,1.0,1.0
32.7865009,-96.8011911,Ntirety: Dallas Data Center,Hostway|HOSTING,"1807 Ross Avenue, Dallas, TX, USA",Individual,1,,23000.0,,datacenters.com,1.0,1.0
32.78674995,-96.7949527728139,Windstream Dallas,Windstream,"600 N Pearl St, Dallas, TX, 75201, USA",Individual,1,,,,datacentermap,1.0,1.0
32.78697608163265,-96.79400534693876,2323 Bryan Street (DFW10),Digital Realty,"2323 Bryan Street, Dallas, TX, 75201, USA",Ambiguous/Flagged,2,,,1982.0,datacentermap,0.1111111111111111,1.0
32.7872315,-96.794157,CyrusOne · Downtown,Oncor,"2323 Bryan Street, Dallas, TX, USA",Ambiguous/Flagged,5,,,1983.0,datacenterhawk; datacenters.com,0.37896094160623056,0.2731829573934838
32.79144830000001,-96.8152629,"IBM Cloud: DAL02/06 Dallas, TX",IBM Cloud,"1333 North Stemmons Freeway suite 110, Dallas, TX, 75207, USA",Individual,1,,,,datacentermap; datacenters.com,1.0,1.0
32.79908160563668,-96.82069027727609,"IBM Cloud: DAL01 Dallas, TX",IBM Cloud,"1950 North Stemmons Freeway, Dallas, TX, 75207, USA",Ambiguous/Flagged,3,,,,datacentermap; datacenters.com,0.4735739301357971,0.11764705882352941
32.79931213414967,-96.82106040179914,Equinix: DA11 Dallas IBX Data Center,Equinix,"1990 North Stemmons Freeway, Dallas, TX, 75207, U.S.",Individual,2,0.0,144560.0,,datacentermap; datacenters.com,1.0,1.0
32.8006365,-96.8195162,Flexential: Dallas - Downtown Data Center,Flexential,"1950 North Stemmons Freeway suite 2033, Dallas, TX, 75207, USA",Individual,1,6.0,80447.0,,datacenters.com,1.0,1.0
32.800748,-96.819412,Flexential · Dallas - Downtown,Equinix,"1950 North Stemmons Freeway, Dallas, TX, USA",Individual,22,,80447.0,1986.0,datacenterhawk; datacenters.com,1.0,1.0
32.8009333,-96.8195337,Cologix DAL2,Cologix,"1950 North Stemmons Freeway Suite 2010, Dallas, TX, 75207, USA",Individual,3,0.023,90000.0,,datacentermap; datacenters.com,1.0,1.0
32.8011211,-96.8209179,Equinix · DA11,Equinix,"1990 N Stemmons, Dallas, TX, USA",Individual,1,,380000.0,2020.0,datacenterhawk,1.0,1.0
32.8057909,-96.7910593,DartPoints · 2711 Haskell Avenue,Parmenter Realty Partners,"2711 Haskell Avenue, Dallas, TX, USA",Individual,1,0.2,,1988.0,datacenterhawk,1.0,1.0
32.8060103,-96.80427000000002,DartPoints · 3131 Turtle Creek Blvd,Cardinal Capital Partners,"3131 Turtle Creek Blvd, Dallas, TX, USA",Individual,1,,136991.0,1972.0,datacenterhawk,1.0,1.0
32.8069549,-96.86858877519526,Lumen Dallas,Lumen,"3180 Irving Blvd., Dallas, TX, 75247, USA",Individual,1,,,,datacentermap,1.0,1.0
32.80730490000001,-96.8687912,Lumen: Dallas 1 Data Center,Lumen,"3180 Irving Blvd, Dallas, TX, USA",Individual,1,12.0,80000.0,,datacenters.com,1.0,1.0
32.8077275,-96.8577558,ColoCrossing · DFW1,Oncor,"3004 Irving Boulevard, Dallas, TX, USA",Ambiguous/Flagged,3,,,2000.0,datacenterhawk; datacenters.com,0.6842461122379987,0.4761904761904761
32.808037299999995,-96.8723332,NocRoom Dallas Colocation and VPS,NocRoom Miami Colocation VPS,"33004 Irving Blvd, Dallas, TX, 75247, USA",Individual,1,,,,datacentermap,1.0,1.0
32.8085889,-117.1358985,Lumen: San Diego 1 Data Center,Lumen,"8929 Aero Drive, San Diego, CA, USA",Individual,1,,52299.0,,datacenters.com,1.0,1.0
32.80905,-117.135902,Lumen San Diego 1,Lumen,"8929 Aero Drive, San Diego, CA, 92123, USA",Individual,1,,52299.0,,datacentermap,1.0,1.0
32.8099276,-117.121092,DataBank SAN2 - San Diego Aero Drive,DataBank,"9606 Aero Drive Suite 1900, San Diego, CA, 92123, USA",Individual,1,,,,datacentermap,1.0,1.0
32.8101296,-117.121087,DataBank · SAN2,SDG&E EcoChoice,"9606 Aero Drive, San Diego, CA, USA",Individual,1,,12000.0,1970.0,datacenterhawk,1.0,1.0
32.8101997,-96.8600612,DartPoints · 3000 Pegasus Park Drive,J. Small Investments,"3000 Pegasus Park Drive, Dallas, TX, USA",Individual,1,,594000.0,1970.0,datacenterhawk,1.0,1.0
32.810485,-96.771288,SoftLayer - DAL07,SoftLayer,"1700 Summit Ave, Dallas, TX, 75074, USA",Individual,1,,,,datacentermap,1.0,1.0
32.8182698,-96.9169452,Edged Energy · DFW01-1,Edged Energy,"505 N Wildwood Drive, Irving, TX, USA",Individual,1,14.0,165543.0,2022.0,datacenterhawk,1.0,1.0
32.8209856,-96.8586651,Equinix · DA12,Oncor,"1550 W Mockingbird Lane, Dallas, TX, USA",Individual,1,,,,datacenterhawk,1.0,1.0
32.821151646586344,-96.9169507751004,Edged Dallas,Edged Energy,"505 N Wildwood Dr, Irving, TX, 75061, USA",Individual,1,24.0,162545.0,,datacentermap; datacenters.com,1.0,1.0
32.8217433,-96.8736034,DataBank · DFW4,DataBank,"1100 Empire Central Place, Dallas, TX, USA",Individual,1,4.0,65000.0,1970.0,datacenterhawk; datacenters.com,1.0,1.0
32.8217451,-96.8736321775884,DataBank DFW4 - Dallas Empire,DataBank,"1100 Empire Central Place, Dallas, TX, 75247, USA",Individual,1,4.0,35900.0,,datacentermap,1.0,1.0
32.8263793,-96.8738655,Digital Realty · DFW36,Oncor,"8435 N Stemmons Freeway, Dallas, TX, USA",Individual,1,4.0,35000.0,1983.0,datacenterhawk; datacenters.com,1.0,1.0
32.82745595,-96.87431674907226,8435 Stemmons Freeway (DFW36),Digital Realty,"8435 Stemmons Freeway, Dallas, TX, 75247, USA",Individual,1,1.2,35000.0,1971.0,datacentermap,1.0,1.0
32.82783303089903,-97.03187582382252,Centersquare - Dallas DFW1,,"14901 FAA Blvd, Dallas, TX, 76155, USA",Individual,1,,189000.0,,datacentermap,1.0,1.0
32.827858649999996,-117.12992659595538,LightEdge - San Diego I,NFINIT,"9305 Lightwave Ave, San Diego, CA, 92123, USA",Individual,1,,80000.0,,datacentermap,1.0,1.0
32.8278833,-117.1298762,LightEdge · 9305 Lightwave Avenue,San Diego Gas & Electric,"9305 Lightwave Avenue, San Diego, CA, USA",Building,3,0.0,166892.0,1985.0,datacenterhawk; datacenters.com,1.0,1.0
32.827969,-96.8843964,Lumen: Dallas 3 Data Center,Lumen,"1150 Regal Row, Dallas, TX, USA",Individual,1,,10000.0,,datacenters.com,1.0,1.0
32.82799115,-96.8843786437176,Lumen Dallas,Lumen,"1150 Regal Row, Dallas, TX, 75247, USA",Individual,1,,,,datacentermap,1.0,1.0
32.82946715,-117.13388395420188,Lumen San Diego 2,Lumen,"8923 Complex Drive, San Diego, CA, 92123, USA",Individual,1,,3953.0,,datacentermap,1.0,1.0
32.8294835,-117.1347732,LightEdge · FADC1,SDG&E,"8913 Complex Drive, San Diego, CA, USA",Individual,2,0.78,15603.0,1971.0,datacenterhawk,1.0,1.0
32.829841,-117.134171,LightEdge · FADC2,SDG&E,"8939 Complex Drive, San Diego, CA, USA",Individual,4,0.606,235186.0,1971.0,datacenterhawk; datacentermap; datacenters.com,1.0,1.0
32.83014409112416,-117.13799658618898,I2B Networks San Diego,"I2B Networks, Inc","8830 Complex Dr, San Diego, CA, 92123, USA",Individual,1,1.25,11000.0,,datacentermap,1.0,1.0
32.8303165,-96.9126896,Equinix · DA9,Oncor,"2222 East Grauwyler Road, Irving, TX, USA",Individual,1,,122205.0,2000.0,datacenterhawk; datacenters.com,1.0,1.0
32.83062404081633,-96.9129594489796,Equinix DA9,Equinix,"2222 East Grauwyler Road, Dallas, TX, 75061, USA",Individual,1,,36554.0,,datacentermap,1.0,1.0
32.8314469,-96.90694564163783,Cogent Data Center - Irving,"Cogent Communications, Inc.","2511 E Grauwyler Rd, Irving, TX, 75061, USA",Individual,1,,19212.0,,datacentermap,1.0,1.0
32.83218194446422,-97.04268291164117,Centersquare: DFW1-C Fort Worth Data Center,Centersquare,"14902 FAA Blvd, Fort Worth, TX, 76155, USA",Individual,1,4.0,34.0,,datacenters.com,1.0,1.0
32.8326073,-97.0407255,"Centersquare · DFW1-A; DFW2-B,C",TXU Delivery,"14901 FAA Boulevard, Fort Worth, TX, USA",Individual,1,20.0,373700.0,2000.0,datacenterhawk; datacenters.com,1.0,1.0
32.832741,-96.987462,ServerMania Dallas Data Center,ServerMania Inc,"3000 Irving Blvd, Dallas, TX, 75247, USA",Individual,1,11.1,68000.0,2000.0,datacentermap,1.0,1.0
32.83276134343434,-96.98748622222222,TierPoint Dallas,TierPoint,"3004 Irving Blvd, Dallas, TX, 75247, USA",Individual,1,0.002,68000.0,2000.0,datacentermap,1.0,1.0
32.83503495,-97.0475061187792,Centersquare: DFW1-B Fort Worth Data Center,Centersquare,"14901 FAA Blvd, Fort Worth, TX, 76155, USA",Campus,3,17.0,45831.0,,datacenters.com,0.9692595562683776,1.0
32.83772875,-117.13263900477504,ScaleMatrix San Diego,ScaleMatrix,"5775 Kearny Villa Rd, San Diego, CA, 92123, USA",Individual,1,5.0,50000.0,1995.0,datacentermap,1.0,1.0
32.83790805,-96.87839317269456,Hivelocity - Dallas 1,Hivelocity,"1515 Round Table Dr, Dallas, TX, 75247, USA",Ambiguous/Flagged,2,,,,datacentermap,0.4583333333333333,0.23529411764705882
32.8379467,-96.8783082,Prime Data Centers: Prime Dallas - 1517 Round Table,Prime Data Centers,"1517 Round Table Drive, Dallas, TX, USA",Individual,1,12.0,96.0,,datacenters.com,1.0,1.0
32.8381702,-96.8789206,Prime Data Centers · DFW01-01,Oncor,"1515 Round Table Drive, Dallas, TX, USA",Individual,6,,106866.0,1969.0,datacenterhawk; datacentermap; datacenters.com,1.0,1.0
32.8382046,-117.1331851,ScaleMatrix · US-West 01,San Diego Gas & Electric,"5775 Kearny Villa Road, San Diego, CA, USA",Individual,1,20.0,50000.0,1995.0,datacenterhawk; datacenters.com,1.0,1.0
32.838594549999996,-96.86526504973207,DataBank DFW6 - Dallas Love Field,Zayo Group,"8600 Harry Hines Blvd, Dallas, TX, 75235, USA",Individual,1,0.675,12560.0,,datacentermap,1.0,1.0
32.8386259,-96.865189,DataBank · DFW6,DataBank,"8600 Harry Hines, Dallas, TX, USA",Individual,2,0.0,23000.0,1951.0,datacenterhawk; datacenters.com,1.0,1.0
32.840914543795535,-117.16941128032563,EdgeConneX San Diego - EDCSDG01,EdgeConneX,"5761 Copley Drive, San Diego, CA, 92111, USA",Individual,1,0.5,9477.0,,datacentermap,1.0,1.0
32.8414243,-117.1696933,EdgeConneX · SDG01,EdgeConneX,"5761 Copley Drive, Suite 150B, San Diego, CA, USA",Individual,1,,27184.0,2001.0,datacenterhawk; datacenters.com,1.0,1.0
32.8512739,-96.918108,KDC · 1351 E John W Carpenter Freeway,Oncor,"1351 E John W Carpenter Freeway, Irving, TX, USA",Individual,1,,4.0,1989.0,datacenterhawk,1.0,1.0
32.8665003,-96.9390056,DartPoints · 220 E Las Colinas Boulevard,Parmenter Realty Partners/Partners Group AG,"220 E Las Colinas Boulevard, Irving, TX, USA",Individual,1,0.2,325253.0,1982.0,datacenterhawk,1.0,1.0
32.873164,-96.9451631,DartPoints · 225 E John Carpenter Freeway,Parmenter Realty Partners/Partners Group AG,"225 E John Carpenter Freeway, Irving, TX, USA",Individual,1,,349436.0,1979.0,datacenterhawk,1.0,1.0
32.8805492,-117.2095055,Cogent Communications: San Diego Town Center Data Center,Cogent Communications,"9530 Towne Centre Drive, San Diego, CA, USA",Individual,1,,34612.0,,datacenters.com,1.0,1.0
32.881032278777376,-117.20856972714188,Cogent Data Center - San Diego 2,"Cogent Communications, Inc.","9530 Towne Centre Drive, San Diego, CA, 92121, USA",Individual,1,,9768.0,,datacentermap,1.0,1.0
32.8851798,-96.7631601,DartPoints · 7557 Rambler Road,Ascent Real Estate Advisors/EY Ventures,"7557 Rambler Road, Dallas, TX, USA",Individual,1,,310771.0,1981.0,datacenterhawk,1.0,1.0
32.8882476,-96.9400366,PowerHouse Data Centers · PowerHouse Irving,Oncor,"111 Customer Way, Irving, TX, USA",Individual,1,144.0,144000.0,,datacenterhawk,1.0,1.0
32.8911967,-96.9888574,QTS · DC5,QTS,"6101 E Campus Circle Drive, Irving, TX, USA",Individual,1,,337191.0,,datacenterhawk,1.0,1.0
32.8937153,-96.9802345,QTS · DC4,QTS Data Centers,"6311 Longhorn Drive, Irving, TX, USA",Individual,1,,214800.0,,datacenterhawk,1.0,1.0
32.893971,-96.979512,QTS Irving DC5,QTS Data Centers,"6300 Longhorn Drive, Dallas, TX, 75063, USA",Individual,1,,264000.0,,datacentermap,1.0,1.0
32.89466315913737,-96.9802931358822,QTS Irving DC3,QTS Data Centers,"6351 Longhorn Drive, Irving, TX, 75063, USA",Individual,1,43.0,415900.0,,datacentermap,1.0,1.0
32.89474,-96.9818194,QTS · DC3,Oncor,"6351 Longhorn Drive, Irving, TX, USA",Individual,1,,379000.0,2018.0,datacenterhawk,1.0,1.0
32.8961428,-96.8984825,"Cologix · DAL1, 2, 3",Oncor,"1950 N StemmonsDallas, Dallas, TX, USA",Ambiguous/Flagged,4,,,1986.0,datacenterhawk,0.37197181829534776,1.0
32.896374,-96.980071,QTS · DC6,QTS Data Centers,"6300 Longhorn Drive, Irving, TX, USA",Individual,1,,210755.0,,datacenterhawk,1.0,1.0
32.896971268602634,-117.20269332121312,LightEdge - San Diego II,LightEdge,"9725 Scranton Road, San Diego, CA, 92121, USA",Individual,1,,25000.0,,datacentermap,1.0,1.0
32.8970897,-96.9829933,QTS · DC1 / DC2,QTS,"6431 Longhorn Drive, Irving, TX, USA",Individual,1,,700000.0,1996.0,datacenterhawk,1.0,1.0
32.8971504,-117.2010397,LightEdge · 9725 Scranton Rd,LightEdge,"9725 Scranton Rd, San Diego, CA, USA",Individual,2,2.0,100000.0,1984.0,datacenterhawk; datacenters.com,1.0,1.0
32.91138980000001,-96.871334,Centersquare · DAL2,Evoque Data Centers,"11830 Webb Chapel Road, Ste. 200, Dallas, TX, USA",Individual,1,10.0,140.0,2000.0,datacenterhawk; datacenters.com,1.0,1.0
32.9151533,-102.4163505,Lincoln Property Group · Loop 9,Oncor,"Loop 9Red Oak, TX, USA",Individual,1,,384000.0,,datacenterhawk,1.0,1.0
32.92039265845474,-96.7768869623359,H5 Colo Dallas,H5 Colo Inc.,"12712 Park Central Dr, Dallas, TX, 75251, USA",Individual,1,,55000.0,2008.0,datacentermap,1.0,1.0
32.9213173,-96.776298,H5 Colo · 12712 Park Central,H5 Colo,"12712 Park Central, Dallas, TX, USA",Individual,1,,220362.0,1975.0,datacenterhawk,1.0,1.0
32.9227978,-96.7913148,DataBank · DFW7,DataBank,"6606 Lyndon B Johnson Fwy, Dallas, TX, USA",Individual,1,,34000.0,1975.0,datacenterhawk; datacenters.com,1.0,1.0
32.923131,-96.7714413,DartPoints · 12790 Merit Drive,PIMCO,"12790 Merit Drive, Dallas, TX, USA",Individual,1,,213837.0,1982.0,datacenterhawk,1.0,1.0
32.92559981818182,-96.79124640909092,DataBank DFW7 - Dallas LBJ,DataBank,"6606 Lyndon B Johnson Fwy, Dallas, TX, 75240, USA",Individual,1,0.94,16070.0,,datacentermap,1.0,1.0
32.9294568,-97.1046037,Rackspace Dallas,Rackspace Hosting,"801 Industrial Blvd., Dallas, TX, 76051, USA",Individual,1,,,,datacentermap,1.0,1.0
32.933869200000004,-96.82802116664344,4849 Alpha Road (DFW14),Digital Realty,"4849 Alpha Road, Dallas, TX, 75244, USA",Ambiguous/Flagged,2,,,1999.0,datacentermap,0.17777777777777778,0.2608695652173913
32.933897099999996,-96.83450044147408,Neutron Data Center,M&A Technology Inc.,"13616 Neutron Road, Dallas, TX, 75244, USA",Individual,1,,,,datacentermap,1.0,1.0
32.9338987,-96.8280072,Digital Realty · DFW14,Oncor,"4849 Alpha Road, Dallas, TX, USA",Individual,2,,125538.0,1999.0,datacenterhawk; datacenters.com,1.0,1.0
32.9483335,-96.7298519,Digital Realty · DFW18 (Datacenter Park - Dallas),Oncor,"1210 Integrity Drive, Richardson, TX, USA",Ambiguous/Flagged,2,,,2011.0,datacenterhawk; datacenters.com,0.5945945945945946,1.0
32.9497086,-96.83737127460776,Mobius Partners - Farmers Branch,Mobius Partners,"4215 N. Beltwood Pkwy, Dallas, TX, 75244, USA",Individual,1,0.35,20000.0,,datacentermap,1.0,1.0
32.9542586,-96.7069258,Equinix · 400 International Parkway,Oncor,"400 International Parkway, Richardson, TX, USA",Individual,1,,196594.0,1984.0,datacenterhawk,1.0,1.0
32.9543979,-96.6118174,CenterServ: Garland Data Center,CenterServ,"675 Town Square Blvd, Garland, TX, USA",Individual,1,,,,datacenters.com,1.0,1.0
32.96063609999999,-96.6603423,Prime Data Centers · DFW02-01,Prime Data Centers,"2000 Holford Road, Garland, TX, USA",Ambiguous/Flagged,3,,,,datacenterhawk,0.9655172413793104,0.3913043478260869
32.962312,-96.7162155,Digital Realty · DFW42,Digital Realty,"1122 Alma Road, Richardson, TX, USA",Individual,1,,,,datacenterhawk,1.0,1.0
32.96483325,-96.71588459880924,1215 Integrity Drive (DFW25),Digital Realty,"1215 Integrity Drive, Dallas, TX, 75081, USA",Individual,1,6.9,118000.0,2011.0,datacentermap,1.0,1.0
32.9649027,-80.10123899999999,DartPoints · 8480 Palmetto Commerce Parkway,DartPoints,"8480 Palmetto Commerce Parkway, Ladson, SC, USA",Individual,1,,15000.0,2012.0,datacenterhawk; datacenters.com,1.0,1.0
32.96508605,-96.71028420296014,Digital Realty: Dallas DFW35 Data Center,Digital Realty,"907 Security Row, Richardson, TX, 75081, USA",Individual,1,12.0,139000.0,2014.0,datacentermap; datacenters.com,1.0,1.0
32.965124,-96.71259896214984,1210 Integrity Drive (DFW18),Digital Realty,"1210 Integrity Drive, Dallas, TX, 75081, USA",Individual,1,36.0,458500.0,2014.0,datacentermap,1.0,1.0
32.9660065,-96.7116014,DataBank · DFW2,Oncor,"904 Quality Way, Richardson, TX, USA",Individual,1,5.0,68000.0,1969.0,datacenterhawk; datacenters.com,1.0,1.0
32.966006050000004,-96.71559586613668,1232 Alma Road (DFW16),Digital Realty,"1232 Alma Road, Dallas, TX, 75081, USA",Individual,1,6.7,105726.0,1967.0,datacentermap,1.0,1.0
32.96617270000001,-96.7159507,Digital Realty · DFW16 (Datacenter Park - Dallas),Digital Realty,"1232 Alma Road, Richardson, TX, USA",Individual,2,12.0,105726.0,1990.0,datacenterhawk; datacenters.com,1.0,1.0
32.96621585,-96.71116972601004,904 Quality Way (DFW21),Digital Realty,"904 Quality Way, Dallas, TX, 75081, USA",Individual,1,,62600.0,,datacentermap,1.0,1.0
32.9662574,-96.7131951,Digital Realty · DFW17 (Datacenter Park - Dallas),Oncor,"900 Quality Way, Richardson, TX, USA",Individual,1,100.0,114922.0,1966.0,datacenterhawk; datacentermap; datacenters.com,1.0,1.0
32.966710877551016,-96.71392697959185,908 Quality Way (DFW20),Digital Realty,"908 Quality Way, Dallas, TX, 75081, USA",Individual,1,10.0,38000.0,,datacentermap,1.0,1.0
32.966840700000006,-96.71708405,Datacenter Park - Dallas,Digital Realty,"900-908 Quality Way, Dallas, TX, 75081, USA",Individual,1,,,,datacentermap,1.0,1.0
32.967205,-96.7103992,Digital Realty · DFW29 (Datacenter Park - Dallas),Oncor,"950 E Collins Boulevard, Richardson, TX, USA",Individual,1,100.0,121286.0,2012.0,datacenterhawk; datacenters.com,1.0,1.0
32.96732195,-96.710528019571,950 E. Collins Boulevard (DFW29),Digital Realty,"950 E. Collins Boulevard, Dallas, TX, 75081, USA",Individual,1,7.2,121300.0,2012.0,datacentermap,1.0,1.0
32.9673234,-96.71332169367172,850 E. Collins Boulevard (DFW28),Digital Realty,"850 E. Collins Boulevard, Dallas, TX, 75081, USA",Individual,1,6.8,121000.0,2012.0,datacentermap,1.0,1.0
32.967388,-96.7131578,Digital Realty · DFW28 (Datacenter Park - Dallas),Digital Realty,"850 E Collins Boulevard, Richardson, TX, USA",Individual,1,,121366.0,2013.0,datacenterhawk,1.0,1.0
32.96773722110552,-96.8450082763819,Serverphase Data Center,M&A Technology Inc.,"2045 Chenault Drive, Dallas, TX, 75006, USA",Individual,1,2.0,10000.0,2008.0,datacentermap,1.0,1.0
32.9690009806486,-96.75316567053451,Equinix DA7,Equinix,"6653 Pinecrest Dr, Dallas, TX, 75024, USA",Individual,1,,37910.0,,datacentermap,1.0,1.0
32.9750246,-96.6481518,Digital Realty · Digital Garland,Garland Power & Light,"805 Holford Road, Garland, TX, USA",Individual,1,8.0,,2024.0,datacenterhawk,1.0,1.0
32.97510484096929,-96.64996538303367,1502 Ferris Rd,Digital Realty,"1502 Ferris Rd, Dallas, TX, 75044, USA",Individual,1,8.0,410000.0,,datacentermap,1.0,1.0
32.97515717346939,-96.70764578571428,365 Data Centers - Richardson,365 Data Centers,"1001 East Campbell Road, Richardson, TX, 75081, USA",Individual,1,6.2,75100.0,,datacentermap,1.0,1.0
32.975274579662255,-96.64952571449834,1505 Ferris Rd,Digital Realty,"1505 Ferris Rd, Dallas, TX, 75044, USA",Individual,1,,181200.0,,datacentermap,1.0,1.0
32.9756776,-96.651844,Digital Realty · Digital Garland DFW37,Oncor,"1502 Ferris Road, Garland, TX, USA",Individual,1,,,,datacenterhawk,1.0,1.0
32.9761212,-96.7073233,365 Data Centers · DAL-1001,Oncor,"1001 East Campbell Road, Richardson, TX, USA",Individual,2,0.0,75000.0,2001.0,datacenterhawk; datacenters.com,1.0,1.0
32.977103,-96.650478,Digital Realty Garland Campus,Digital Realty,"1702 W Campbell Rd / 1502 Ferris Rd / 1505 Ferris Rd, Garland, TX, 75044, USA",Individual,1,,,,datacentermap,1.0,1.0
32.977714918016375,-96.6530894470224,1702 W Campbell Rd,Digital Realty,"1702 W Campbell Rd, Dallas, TX, 75044, USA",Individual,1,,,,datacentermap,1.0,1.0
32.97802956321839,-96.85545666666668,2440 Marsh Lane (DFW12),Digital Realty,"2440 Marsh Lane, Dallas, TX, 75006, USA",Individual,1,6.7,135250.0,1998.0,datacentermap,1.0,1.0
32.9796069,-97.2524048,TierPoint · 13701 Independence Parkway,TierPoint,"13701 Independence Parkway, Fort Worth, TX, USA",Individual,1,,200000.0,2003.0,datacenterhawk,1.0,1.0
32.9801135,-96.8537053,Vazata · DAL II,Digital Realty,"2440 Marsh Lane, Carrollton, TX, USA",Individual,2,,135250.0,1998.0,datacenterhawk; datacenters.com,1.0,1.0
32.981432,-97.262693,QTS Fort Worth 1 DC1,"QTS Realty Trust, Inc.","14100 Park Vista Boulevard, Fort Worth, TX, 76177, USA",Individual,1,50.0,263000.0,,datacentermap,1.0,1.0
32.9821329,-96.6574876,NTT Global Data Centers · TX1Featured,NTT Global Data Centers,"2008 Lookout Drive, Garland, TX, USA",Individual,5,,,2016.0,datacenterhawk; datacenters.com,1.0,1.0
32.98243768324648,-96.66264398167024,NTT Global Data Centers: TX1 Dallas Data Center,NTT Global Data Centers,"2008 Lookout Dr, Garland, TX, 75044, USA",Individual,1,16.0,230000.0,,datacentermap; datacenters.com,1.0,1.0
32.9836828,-96.655255,Stream Data Centers · DFW VIIFeatured,Stream Data Centers,"1813 Lookout Drive, Garland, TX, USA",Individual,1,,275000.0,2019.0,datacenterhawk,1.0,1.0
32.9841609,-96.6982857,DigiCo REIT · DAL1,DigiCo,"1402 E Lookout Drive, Richardson, TX, USA",Individual,1,,,2024.0,datacenterhawk,1.0,1.0
32.9844048,-97.2617581,"Meta, Inc.: Fort Worth Data Center",,"4500 Like Way, Fort Worth, TX, 76177, USA",Individual,1,,,,datacenters.com,1.0,1.0
32.9845948,-96.7573801,Fujitsu · 17201 Waterview Parkway,Fujitsu,"17201 Waterview Parkway, Richardson, TX, USA",Individual,1,,61750.0,1982.0,datacenterhawk,1.0,1.0
32.984972,-85.055494,Form8tion Data Centers · 411 Pegasus Parkway,Thor Equities,"411 Pegasus Parkway, LaGrange, GA, USA",Individual,1,,506220.0,2023.0,datacenterhawk,1.0,1.0
32.9868575,-97.2523317,Meta Fort Worth Data Center,,"Meta 4500 Like Way, Dallas, TX, 76177, USA",Individual,1,,,,datacentermap,1.0,1.0
32.9883294,-97.0123919,2501 S. State Highway 121 (DFW26),Digital Realty,"2501 S. State Highway 121, Dallas, TX, 75056, USA",Individual,1,,,1979.0,datacentermap,1.0,1.0
32.9884186,-117.0731695,DataBank · SAN1,SDG&E EcoChoice,"12270 World Trade Drive, San Diego, CA, USA",Individual,1,1.0,88000.0,1997.0,datacenterhawk; datacenters.com,1.0,1.0
32.9886013,-117.07324598812784,"Zayo: San Diego, California",Zayo,"12270 World Trade Drive, San Diego, CA, 92128, USA",Individual,1,3.2,55140.0,,datacentermap; datacenters.com,1.0,1.0
32.9887024,-117.0723996,DataBank: SAN1 San Diego World Trade Data Center,DataBank,"12270 World Trade Drive suite 100, San Diego, CA, 92128, USA",Individual,1,3.0,88000.0,,datacenters.com,1.0,1.0
32.9888501,-97.259221,QTS · DC3,QTS,"14100 Park Vista Boulevard, Fort Worth, TX, USA",Individual,2,0.0,734876.0,2010.0,datacenterhawk; datacenters.com,1.0,1.0
32.9920341,-96.9303347,ColoHouse · Dallas,Oncor,"1649 West Frankford Road, Dallas, TX, USA",Individual,2,60.0,60000.0,2000.0,datacenterhawk; datacentermap; datacenters.com,1.0,1.0
32.9930675,-96.9320286,11:11 Systems: Carrollton Data Center,11:11 Systems,"1649 W Frankford Rd, Carrollton, TX, 75007, USA",Individual,1,,,,datacenters.com,1.0,1.0
32.99334516161616,-96.75614264646464,Flexential: Dallas - Richardson Data Center,Flexential,"3010 Waterview Pkwy, Richardson, TX, 75080, USA",Individual,1,3.0,100807.0,,datacentermap; datacenters.com,1.0,1.0
32.99427903049599,-96.669734515248,Cisco Richardson Data Center,Cisco Systems,"2300 E President George Bush Hwy, Richardson, TX, 75082, USA",Individual,1,,,,datacentermap,1.0,1.0
32.9946007,-96.7528072,Flexential · Dallas - Richardson,Oncor,"3010 Waterview Parkway, Richardson, TX, USA",Individual,1,,100807.0,1988.0,datacenterhawk,1.0,1.0
32.9989619,-96.8989001,CyrusOne DFW1 - Carrollton,CyrusOne Data Centers,"1649 Frankfort Road West, Carrollton, TX, 75007, USA",Individual,1,90.0,,,datacentermap,1.0,1.0
32.9999613,-96.9983678,CyrusOne: DFW2 Dallas Lewisville Data Center,CyrusOne,"2501 Texas 121 Business, Lewisville, TX, US",Individual,1,26.0,200000.0,,datacenters.com,1.0,1.0
33.00219860000001,-97.000261,Digital Realty · DFW26,Digital Realty,"2501 State Highway 121, Lewisville, TX, USA",Individual,1,2.0,,1979.0,datacenterhawk; datacenters.com,1.0,1.0
33.0048799,-96.74126,Skybox Datacenters · Atlantic Station - Building 1,Oncor,"2300 W Plano Parkway, Plano, TX, USA",Campus,4,0.0,0.0,2013.0,datacenterhawk,0.9800000000000001,1.0
33.0064744,-96.6917179,Ascent Data Centers · DAL1,Fortinet,"1500 East Plano Parkway, Plano, TX, USA",Individual,1,,43300.0,1991.0,datacenterhawk,1.0,1.0
33.006936,-96.669565,Flexential Dallas - Plano Data Center,Flexential,"3500 E Plano Pkwy, Plano, TX, 75074, USA",Individual,1,18.0,261425.0,,datacentermap,1.0,1.0
33.007225,-96.737687,Skybox Atlantic Station,Skybox Datacenters,"2300 W Plano Pkwy, Plano, TX, 75075, USA",Individual,1,100.0,1.0,,datacentermap,1.0,1.0
33.0075817,-96.6664411,Flexential · Dallas - Plano,Oncor,"3500 East Plano Parkway, Plano, TX, USA",Individual,2,18.0,261425.0,2016.0,datacenterhawk; datacenters.com,1.0,1.0
33.008859799999996,-96.84381205,4025 Midway Rd (DFW11),Digital Realty,"4025 Midway Rd, Dallas, TX, 75007, USA",Ambiguous/Flagged,2,,,2000.0,datacentermap,0.10810810810810811,0.2
33.0092914,-96.6764914,Aligned Data Centers · DFW01Featured,Oncor,"2800 Summit Avenue, Plano, TX, USA",Ambiguous/Flagged,4,,,2005.0,datacenterhawk; datacenters.com,0.6307712038303693,0.3928571428571428
33.009325477164744,-96.68919295636316,"IBM Cloud: DAL07 Dallas, TX",IBM Cloud,"1700 Summit Ave, Plano, TX, 75074, USA",Individual,1,,,,datacenters.com,1.0,1.0
33.00975493708304,-96.6784322829964,Evocative DAL1,Evocative Data Centers,"2800 Summit Ave, Plano, TX, 75074, USA",Individual,1,30.0,300000.0,,datacentermap; datacenters.com,1.0,1.0
33.0122954,-96.6831175,Global IP Networks · Plano,Global IP Networks,"1009 Jupiter Road, Plano, TX, USA",Individual,1,,33460.0,1999.0,datacenterhawk; datacentermap,1.0,1.0
33.0137124,-96.7656859,Lincoln Property Group · 1000 Coit Rd,Lincoln Rackhouse,"1000 Coit Rd, Plano, TX, USA",Individual,1,,454421.0,1988.0,datacenterhawk; datacenters.com,1.0,1.0
33.0157057,-96.7688147,Evocative · 1221 Coit Road,Oncor,"1221 Coit Road, Plano, TX, USA",Individual,2,,128753.0,2011.0,datacenterhawk; datacenters.com,1.0,1.0
33.01601457142858,-96.76688514285716,Evocative DAL6,Evocative Data Centers,"1221 Coit Road, Plano, TX, 75075, USA",Individual,1,12.0,111000.0,2011.0,datacentermap; datacenters.com,1.0,1.0
33.0217204,-96.844801,Digital Realty · DFW11,Oncor,"4025 Midway Road, Carrollton, TX, USA",Ambiguous/Flagged,3,,,1998.0,datacenterhawk; datacenters.com,0.46159537835453485,1.0
33.0298062,-96.706006,CenterServ: Plano Data Center,CenterServ,"101 E Park Blvd, Plano, TX, USA",Individual,1,,,,datacenters.com,1.0,1.0
33.0463292,-96.9941903,CyrusOne · Convergence Building 4,New Mexico Power & Light,"2501 S State HighwayLewisville, TX, USA",Ambiguous/Flagged,3,,,1979.0,datacenterhawk,0.9696969696969697,0.4385964912280702
33.0648651,-96.8107015,Equinix · DA7,STACK INFRASTRUCTURE,"6653 Pinecrest Drive, Plano, TX, USA",Ambiguous/Flagged,3,,,2006.0,datacenterhawk; datacenters.com,0.5263157894736842,1.0
33.06528409560126,-96.80928189281578,STACK Infrastructure DFW01B,STACK Infrastructure,"6715 Pinecrest Dr, Plano, TX, 75024, USA",Individual,1,11.0,156000.0,,datacentermap,1.0,1.0
33.06651070000001,-96.809855,STACK Infrastructure · DFW01B,Oncor,"6715 Pinecrest Drive, Plano, TX, USA",Individual,1,4.2,157000.0,2016.0,datacenterhawk,1.0,1.0
33.0669638,-96.8133876,STACK Infrastructure · DFW01 Future Expansion,Oncor,"5601 West Spring Creek Parkway, Plano, TX, USA",Individual,1,9.0,278000.0,2014.0,datacenterhawk,1.0,1.0
33.085227685975575,-96.81243463687385,DataBank DFW3 - Plano,DataBank,"8375 Dominion Pkwy, Plano, TX, 75024, USA",Individual,1,13.5,72600.0,,datacentermap,1.0,1.0
33.0878478,-96.8144343,DataBank · DFW3,DataBank,"8375 Dominion Parkway, Plano, TX, USA",Individual,2,0.0,144000.0,2017.0,datacenterhawk; datacenters.com,1.0,1.0
33.094894,-96.68326,Centersquare · DAL1,Centersquare,"900 Guardians Way, Allen, TX, USA",Individual,1,12.0,112292.0,1999.0,datacenterhawk; datacentermap; datacenters.com,1.0,1.0
33.0951879,-96.68356465653412,Centersquare: DFW2-A Allen Data Center,Centersquare,"900 Guardians Way, Allen, TX, 75013, USA",Individual,1,12.0,115.0,,datacenters.com,1.0,1.0
33.1053255,-80.0885073,"Google: Berkeley County, SC Data Center",Google,"200-220 State Road S-8-934, SC, US",Individual,1,,,2007.0,datacenters.com,1.0,1.0
33.1357875,-96.6605025,Cisco Allen Data Center,Cisco Systems,"2260 Chelsea Blvd, Dallas, TX, 75013, USA",Individual,1,,,,datacentermap,1.0,1.0
33.1379228,-96.6574133,TierPoint: Dallas - Allen Data Center,TierPoint,"840 Allen Commerce Parkway, Allen, TX, USA",Individual,1,2.0,30000.0,,datacenters.com,1.0,1.0
33.1385733,-96.6610129,CyrusOne · DFW3 - Building 1,CyrusOne,"2300 Chelsea Boulevard, Allen, TX, USA",Individual,1,13.5,346179.0,2018.0,datacenterhawk; datacentermap,1.0,1.0
33.138618,-96.657387,Compass Datacenters · DFW I,Compass Datacenters,"820 Allen Commerce Parkway, Allen, TX, USA",Campus,2,3.0,177000.0,2017.0,datacenterhawk; datacentermap; datacenters.com,0.9818181818181818,1.0
33.1718115,-96.7255427,Evocative · DA2,VPLS,"3400 S Stonebridge Dr, McKinney, TX, USA",Individual,1,,75000.0,1998.0,datacenterhawk,1.0,1.0
33.2199698,-97.2125723,Core Scientific Denton,,"Core Scientific 8171 Jim Christal Rd, Denton, TX, 76207, USA",Individual,1,,30000.0,2022.0,datacentermap,1.0,1.0
33.22286461943202,-96.62832844193518,VAZATA McKinney,VAZATA,"1720 Bray Central Dr, McKinney, TX, 75069, USA",Individual,1,1.0,5000.0,2016.0,datacentermap,1.0,1.0
33.2661372,-111.8862957,Aligned Data Centers · PHX-06,Salt River Project,"2955 W Innovation Street, Chandler, AZ, USA",Individual,2,90.0,258766.0,,datacenterhawk,1.0,1.0
33.2665243,-111.8843719,CyrusOne · PHX7,CyrusOne,"2705 S Ellis Street, Chandler, AZ, USA",Building,2,0.0,320000.0,2019.0,datacenterhawk,0.9333333333333333,1.0
33.2676243,-111.8827558,CyrusOne · PHX6,CyrusOne,"2605 S Ellis Street, Chandler, AZ, USA",Individual,1,18.0,193000.0,2017.0,datacenterhawk; datacenters.com,1.0,1.0
33.2687741,-111.8825177,CyrusOne · PHX4,CyrusOne,"2495 S Ellis Street, Chandler, AZ, USA",Individual,1,,103000.0,2017.0,datacenterhawk,1.0,1.0
33.2697453,-111.8815608,CyrusOne · PHX5,CyrusOne,"2405 S Ellis Street, Chandler, AZ, USA",Individual,1,,185000.0,2017.0,datacenterhawk,1.0,1.0
33.2709636,-111.8832998,ColoHouse · 2335 South Ellis Street,Salt River Project,"2335 South Ellis Street, Phoenix, AZ, USA",Ambiguous/Flagged,2,,,2012.0,datacenterhawk,0.32,0.15384615384615385
33.27195630000001,-111.8824683,CyrusOne · PHX2,CyrusOne,"2305 S Ellis Street, Chandler, AZ, USA",Ambiguous/Flagged,2,,,2012.0,datacenterhawk,0.9333333333333333,0.07692307692307693
33.274703,-111.8881214,Digital Realty · PHX15,Salt River Project,"2121 S Price Road, Chandler, AZ, USA",Individual,2,76.0,58000.0,2001.0,datacenterhawk; datacenters.com,1.0,1.0
33.2770662,-111.8856914,H5 Data Centers · 2600 W Germann Road,H5 Data Centers,"2600 W Germann Road, Chandler, AZ, USA",Individual,3,26.0,180000.0,2013.0,datacenterhawk; datacenters.com,1.0,1.0
33.3008813,-111.8863212,INAP · 2500 W Frye Rd,Salt River Project,"2500 W Frye Rd, Chandler, AZ, USA",Individual,1,4.7,160000.0,1988.0,datacenterhawk; datacenters.com,1.0,1.0
33.3097305,-111.9782946,Menlo Equities · ME-PHX 4,Salt River Project,"4811 E Thistle Landing Drive, Phoenix, AZ, USA",Campus,2,0.0,0.0,,datacenterhawk,0.96,1.0
33.310603,-111.9794758,Menlo Equities · ME-PHX 2,Salt River Project,"4805 E Thistle Landing Drive, Phoenix, AZ, USA",Individual,1,51.4,,,datacenterhawk,1.0,1.0
33.3110995,-111.9771339,Menlo Equities · ME-PHX 3,Salt River Project,"4809 E Thistle Landing Drive, Phoenix, AZ, USA",Individual,1,51.4,51400.0,,datacenterhawk,1.0,1.0
33.31201,-111.9782331,Menlo Equities · ME-PHX 1,Salt River Project,"4801 E Thistle Landing Drive, Phoenix, AZ, USA",Individual,1,,,,datacenterhawk,1.0,1.0
33.3186359,-111.8970784,CenterServ: Chandler Data Center,CenterServ,"3100 West Ray Road, Chandler, AZ, USA",Individual,1,,,,datacenters.com,1.0,1.0
33.3353752,-111.5965013,Edged Energy · PHX01-1,Salt River Project,"8811 E Warner Road, Mesa, AZ, USA",Individual,1,,127925.0,,datacenterhawk,1.0,1.0
33.33539299341803,-111.59812265005937,Edged: Edged Phoenix Data Center,,"8811 East Warner Road, Mesa, AZ, 85212, USA",Individual,1,36.0,,,datacenters.com,1.0,1.0
33.33753495,-111.6355467,"Meta, Inc.: Mesa Data Center",,"3841 S Ellsworth Rd, Mesa, AZ, 85212, USA",Individual,1,,,,datacenters.com,1.0,1.0
33.3407785,-111.6357233,Novva · DH1,Salt River Project,"11708 Ellsworth Road  #1, Mesa, AZ, USA",Campus,5,120.0,924925.0,,datacenterhawk,0.909090909090909,0.5222222222222223
33.344391,-111.620524,Apple Inc.: Mesa Data Center,Apple Inc.,"3740 South Signal Butte Road, Mesa, AZ, USA",Individual,1,,,2017.0,datacenters.com,1.0,1.0
33.3446504,-111.8992421,Centersquare · PHX2-A,Salt River Project,"2055 East Technology Circle, Tempe, AZ, USA",Ambiguous/Flagged,2,,,1989.0,datacenterhawk,0.24615384615384617,1.0
33.3463249,-111.6194804,EdgeCore · PH02,Salt River Project,"3856 S Everton Terrace, Mesa, AZ, USA",Building,3,0.0,178252.0,2019.0,datacenterhawk,0.9333333333333332,1.0
33.3506069,-111.6102207,NTT Global Data Centers · PH1,NTT Global Data Centers,"10256 E Elliot Road, Mesa, AZ, USA",Individual,1,,210000.0,2021.0,datacenterhawk,1.0,1.0
33.3551689,-111.8268400806063,US Signal: 1655 W Sunrise Blvd Data Center,US Signal,"1655 West Sunrise Boulevard, Gilbert, AZ, 85233, USA",Individual,1,,14000.0,,datacenters.com,1.0,1.0
33.35518210000001,-111.8268354,OneNeck IT Solutions · Phoenix 1,Salt River Project,"1655 W Sunrise Boulevard, Gilbert, AZ, USA",Individual,1,0.7,14168.0,1998.0,datacenterhawk,1.0,1.0
33.355480650000004,-111.61122111381935,NTT Global Data Centers: PH1 Phoenix Data Center,NTT Global Data Centers,"10256 East Elliot Road, Mesa, AZ, 85212, USA",Individual,1,36.0,126000.0,,datacenters.com,1.0,1.0
33.35667205,-111.63469327486008,Comarch ICT: Phoenix Data Center,Comarch,"3223 S Ellsworth Rd, Mesa, AZ, 85212, USA",Individual,1,2.0,32000.0,,datacenters.com,1.0,1.0
33.3587236,-111.6267468,CyrusOne · MESA1,CyrusOne,"3255 S 96th Street, Mesa, AZ, USA",Campus,5,0.0,0.0,,datacenterhawk,0.9375,0.6307692307692307
33.3625147,-111.6532931,EdgeConneX · PHX02,EdgeConneX,"3261 S Hawes Road, Mesa, AZ, USA",Individual,1,,167812.0,,datacenterhawk,1.0,1.0
33.3944181,-111.9524628,Omnis Network · 1005 W Geneva Drive,Omnis Network,"1005 W Geneva Drive, Tempe, AZ, USA",Individual,1,0.625,17000.0,1980.0,datacenterhawk,1.0,1.0
33.3955209,-111.9701049,EdgeConneX · PHX01,EdgeConneX,"3011 S 52nd Street, Suite 107, Tempe, AZ, USA",Individual,2,3.0,80908.0,1980.0,datacenterhawk; datacenters.com,1.0,1.0
33.4058389,-112.3708264,Vantage Data Centers · AZ21,Vantage Data Centers,"14537 W Broadway Road, Goodyear, AZ, USA",Individual,1,,,,datacenterhawk,1.0,1.0
33.4114399,-112.4121243,DCX · GYR1,Arizona Public Service,"16422 W Commerce Drive, Goodyear, AZ, USA",Individual,1,,,2012.0,datacenterhawk,1.0,1.0
33.41199428032919,-112.44424930423487,Microsoft Azure: Goodyear - USA (PHX70),Microsoft Azure,"3785 Citrus Rd, Goodyear, AZ, 85338, USA",Individual,1,,,,datacenters.com,1.0,1.0
33.414469,-112.0105628,phoenixNAP · PHX02,Salt River Power,"3255 E Elwood Street, Phoenix, AZ, USA",Individual,1,30.0,530000.0,,datacenterhawk,1.0,1.0
33.4160625,-112.0091614,phoenixNAP · PHX01,phoenixNAP,"3402 E University Drive, Phoenix, AZ, USA",Individual,2,4.5,160000.0,1999.0,datacenterhawk; datacenters.com,1.0,1.0
33.41607765,-112.00935996881752,Liquid Web: Phoenix Data Center,Liquid Web,"3402 E University Dr, Phoenix, AZ, 85034, USA",Ambiguous/Flagged,2,,,,datacenters.com,0.5789473684210527,0.17391304347826086
33.416113,-112.359903,Stream Data Centers · Phoenix II,Arizona Public Service,"3180 S Litchfield Road, Goodyear, AZ, USA",Campus,6,20.0,0.0,,datacenterhawk,0.9678811003811004,1.0
33.4168202,-112.0084237,Cogent Communications: Phoenix Data Center,Cogent Communications,"3410 East University Drive, Phoenix, AZ, USA",Individual,1,,,,datacenters.com,1.0,1.0
33.4171171,-112.312169,Prime Data Centers: Prime Phoenix - Lower Buckeye #1,Prime Data Centers,"11753 W Lower Buckeye Rd, Avondale, AZ, USA",Campus,5,240.0,1309200.0,,datacenters.com,0.9807692307692306,1.0
33.4185433,-112.3572495,STACK Infrastructure · PHX01A,Arizona Public Service,"3001 S Litchfield Road, Avondale, AZ, USA",Campus,3,0.0,0.0,2019.0,datacenterhawk,0.9655172413793104,1.0
33.419655,-112.360011,Stream Data Centers · Phoenix IFeatured,Arizona Public Service,"2950 S Litchfield Road #1, Goodyear, AZ, USA",Individual,1,40.0,418200.0,2008.0,datacenterhawk; datacenters.com,1.0,1.0
33.4212556,-111.85900104986746,Centersquare: PHX3-A Mesa Data Center,Centersquare,"1301 West University Drive, Mesa, AZ, 85201, USA",Individual,1,6.0,73.0,,datacenters.com,1.0,1.0
33.4213069,-111.8589771,Centersquare · PHX1,Salt River Project,"1301 West University Boulevard, Mesa, AZ, USA",Individual,1,14.0,154158.0,1985.0,datacenterhawk; datacenters.com,1.0,1.0
33.4397621,-112.0469146,Lumen: Phoenix 1 Data Center,Lumen,"811 South 16th Street, Phoenix, AZ, USA",Individual,1,11.0,47836.0,,datacenters.com,1.0,1.0
33.4404171,-112.3766047,Compass Datacenters · PHX I-A,Arizona Public Service,"400 S Bullard Avenue, Goodyear, AZ, USA",Individual,6,1.2,10000.0,2021.0,datacenterhawk; datacenters.com,1.0,1.0
33.4411857,-112.06712,Metrobloks · Phoenix,Metrobloks,"625 S 5th Street, Phoenix, AZ, USA",Individual,1,,,,datacenterhawk,1.0,1.0
33.4447313,-84.5263265,QTS · ATL2,QTS,"Highway 54 and Tyrone RoadFayetteville, GA, USA",Individual,1,,,,datacenterhawk,1.0,1.0
33.447158,-112.3734521,Vantage Data Centers · AZ11/AZ12/AZ13,Vantage Data Centers,"45 S Bullard Avenue, Goodyear, AZ, USA",Individual,1,32.0,,2021.0,datacenterhawk; datacenters.com,1.0,1.0
33.448501,-112.373155,Vantage Data Centers · AZ14/AZ15,Vantage Data Centers,"155 N Bullard Avenue, Goodyear, AZ, USA",Individual,1,,451600.0,,datacenterhawk,1.0,1.0
33.4490539,-111.805109,Not Available,CenterServ,"1910 South Stapley Drive, Mesa, AZ, USA",Individual,1,,,,datacenters.com,1.0,1.0
33.4519088,-112.0719012,Digital Realty · PHX10,Arizona Public Service,"120 East Van Buren Street, Phoenix, AZ, USA",Ambiguous/Flagged,5,,,1946.0,datacenterhawk; datacenters.com,0.5824467735291776,1.0
33.4519107,-112.07190774845004,QTS Data Centers: Phoenix-Van Buren Data Center,QTS Data Centers,"120 East Van Buren Street, Phoenix, AZ, 85004, USA",Individual,1,32.0,288000.0,,datacenters.com,1.0,1.0
33.4520199,-111.97771,Iron Mountain Data Centers · AZP-2,Iron Mountain,"4802 E Van Buren Street, Phoenix, AZ, USA",Individual,2,84.0,230000.0,2019.0,datacenterhawk; datacenters.com,1.0,1.0
33.4544742,-111.9774182,"Centersquare · PHX1-A,B,C",Arizona Public Service,"615 N. 48th Street, Phoenix, AZ, USA",Ambiguous/Flagged,4,,,2004.0,datacenterhawk; datacenters.com,0.5151416122004356,0.5555555555555555
33.45449175,-111.97618118355076,Centersquare: PHX1-A Phoenix Data Center,Centersquare,"615 N 48th St, Phoenix, AZ, 85008, USA",Individual,4,16.0,540.0,,datacenters.com,0.975,1.0
33.456603,-111.9711628,Iron Mountain Data Centers · AZP-3,Arizona Public Service,"5100 E Roosevelt Street, Phoenix, AZ, USA",Individual,1,,230000.0,,datacenterhawk,1.0,1.0
33.4568313,-111.9963031,STACK Infrastructure · PHX02 Building 1,Arizona Public Service,"800 N 40th Street, Phoenix, AZ, USA",Individual,1,,,,datacenterhawk,1.0,1.0
33.4623278989899,-111.9951634949495,QTS Data Centers: Phoenix Data Center,"QTS Realty Trust, Inc.","1200 North 40th Street, Phoenix, AZ, 85008, USA",Individual,1,,108000.0,,datacenters.com,1.0,1.0
33.4623678,-111.9957938,QTS · Phoenix II DC1,QTS,"1200 40th Street, Phoenix, AZ, USA",Individual,1,,337334.0,2023.0,datacenterhawk,1.0,1.0
33.4656076,-86.83283039999999,C Spire · 200 Summit Parkway,Emerson Network Power,"200 Summit Parkway, Birmingham, AL, USA",Individual,1,0.65,20700.0,1981.0,datacenterhawk,1.0,1.0
33.4656732,-111.9955827,QTS · Phoenix II DC3,QTS,"1600 40th Street, Phoenix, AZ, USA",Ambiguous/Flagged,4,,,2023.0,datacenterhawk,0.9500000000000001,0.3968253968253969
33.4663254,-86.8312332,C Spire · 201 Summit Parkway,Emerson Network Power,"201 Summit Parkway, Birmingham, AL, USA",Individual,1,,31850.0,1982.0,datacenterhawk,1.0,1.0
33.4705608,-88.7911355,C Spire · 401 Research Boulevard,Starkville Electric,"401 Research Boulevard, Starkville, MS, USA",Individual,1,,23800.0,2014.0,datacenterhawk,1.0,1.0
33.4763574,-112.0729802,Lumen: Phoenix 2 Data Center,Lumen,"17 East Virginia Avenue, Phoenix, AZ, USA",Individual,1,,5000.0,,datacenters.com,1.0,1.0
33.4836822,-112.0764881,DataBank: PHX1 Downtown Phoenix Data Center,DataBank,"3110 North Central Avenue suite d151, Phoenix, AZ, 85012, USA",Individual,1,,16200.0,,datacenters.com,1.0,1.0
33.4847911,-112.0757224,DataBank · PHX1,Arizona Public Service,"3110 N. Central Avenue, Phoenix, AZ, USA",Individual,1,,267000.0,1980.0,datacenterhawk; datacenters.com,1.0,1.0
33.4932433,-112.0704596,Landmark Dividend · 4010 N 3rd Street,Arizona Public Service,"4010 N 3rd Street, Phoenix, AZ, USA",Individual,1,,184000.0,2001.0,datacenterhawk,1.0,1.0
33.5000085,-86.82155399999999,DC Blox · BHM1,DC Blox,"433 6th Street South, Birmingham, AL, USA",Individual,1,48.0,31000.0,2019.0,datacenterhawk,1.0,1.0
33.5080997,-86.82666309999999,Lumen: Birmingham 1 Data Center,Lumen,"401 6th Street North, Birmingham, AL, USA",Individual,1,,10000.0,,datacenters.com,1.0,1.0
33.5195028,-86.8098072,Lumen: Birmingham 2 Data Center,Lumen,"2001 Park Place, Birmingham, AL, USA",Individual,1,,3408.0,,datacenters.com,1.0,1.0
33.5223812,-112.435782,QTS · Glendale I,Arizona Public Service,"17501 W Bethany Home Road #1, Glendale, AZ, USA",Campus,16,0.0,0.0,,datacenterhawk,0.9257538621509198,1.0
33.52512464294988,-84.62574096810019,Microsoft Azure: Palmetto Data Center,Microsoft Azure,"8527 Williams Rd, Palmetto, GA, 30268, USA",Individual,1,,,,datacenters.com,1.0,1.0
33.5582488,-85.0906687,Fogo Data Centers · 340 Tom Reeve Drive,Fogo Data Centers,"340 Tom Reeve Drive, Carrollton, GA, USA",Individual,1,,10000.0,1995.0,datacenterhawk,1.0,1.0
33.564091,-112.391355,Aligned Data Centers · PHX-07,Arizona Public Service,"8805 N Reems RoadWaddell, Waddell, AZ, USA",Campus,7,0.0,0.0,,datacenterhawk,0.9540229885057468,1.0
33.5644771,-112.1120733,Expedient · 2475 West Townley Avenue,Salt River Project,"2475 West Townley Avenue, Phoenix, AZ, USA",Individual,1,3.0,46.0,2010.0,datacenterhawk; datacenters.com,1.0,1.0
33.565487088235294,-112.3375524117647,Microsoft Azure: West US 3-Arizona,Microsoft Azure,"12901 West Olive Avenue, El Mirage, AZ, 85335, USA",Individual,1,,244666.0,,datacenters.com,1.0,1.0
33.58155989795919,-101.85142102040815,Lumen Lubbock 1,Lumen,"1502 Ave. N, Lubbock, TX, 79479, USA",Individual,1,,5000.0,,datacentermap,1.0,1.0
33.593928489795914,-102.03216583673468,Reese Data Center,,"9924 Reese Blvd., Lubbock, TX, 79416, USA",Individual,1,,,,datacentermap,1.0,1.0
33.595519,-111.920553,11:11 Systems: Scottsdale Data Center,11:11 Systems,"7499 E Paradise Ln, Scottsdale, AZ, 85260, USA",Individual,1,,,,datacenters.com,1.0,1.0
